Contact Method,Name,Date,Time,City,State,Observer,Vessel,GIS Latitude,GIS Longitude,Depth (ft),Location,Region/Buoy#,Reef Zone,Wind Spd.,Air Temp (°F),SST (°F),Bottom Temp (°F),Cloud Cover,Bleaching?,Severity,Branching/Pillar,Brain,Encrusting/Mound/Boulder,Flowering/Cup,Leaf/Plate/Sheet,Fleshy,% bleached,Max Depth (ft),Min Depth (ft),Baseline Indicators,Baseline Indicators,Baseline Indicators,Notes
Email, Danielle Morley,5/31/2015,9:00,Marathon,FL, Research,Florida Fish and Wildlife (FWC),24.68023,-82.88533,60, Dry Tortugas National Park,Texas Rock,Patch Reef, 5-10 kts,84,82,82,partly cloudy,YES,paling,none,paling,none,none,none,none,1-10%,30,25,no data,no data,no data,I only observed one coral head of strigosa paling on the entire dive.
In Person, Cory Walter,6/3/2015,no data,Summerland Key,FL, Research,Mote Marine Laboratory,24.55245,-81.38409,no data, Site A Outplant,no data,Bank Reef,no data,no data,no data,no data,no data,NO,none,none,none,none,none,none,none,0%,no data,no data,no data,no data,no data,
In Person, Cory Walter,6/4/2015,no data,Summerland Key,FL, Research,Mote Marine Laboratory,24.45225,-81.87936,25, Sand Key,no data,Bank Reef,no data,no data,no data,no data,no data,NO,none,none,none,none,none,none,none,0%,no data,no data,no data,no data,no data,
In Person, Cory Walter,6/8/2015,no data,Summerland Key,FL, Research,Mote Marine Laboratory,24.59565,-81.37162,no data, Munson Reef,no data,Mid-Channel Reef,no data,no data,no data,no data,no data,NO,none,none,none,none,none,none,none,0%,no data,no data,no data,no data,no data,
In Person, Cory Walter,6/10/2015,9:00,Summerland Key,FL, Research,Mote Marine Laboratory,24.54573,-81.40522,22, Looe Key SPA,buoy 13,Bank Reef, 0-5 kts,no data,81,no data,no data,NO,none,none,none,none,none,none,none,0%,no data,no data,no data,no data,no data,
In Person, Cory Walter,6/11/2015,9:00,Summerland Key,FL, Research,Mote Marine Laboratory,24.54948,-81.37972,77, Hill's Research Site, East of Looe,Deep Reef, 5-10 kts,no data,no data,no data,no data,YES,paling,none,paling,paling,none,none,none,1-10%,77,40,no data,no data,no data,Lots of lionfish there!!  Mostly just SSID paling
In Person, Cory Walter,6/11/2015,12:00,Summerland Key,FL, Research,Mote Marine Laboratory,24.62148,-81.36317,15,Inshore Coral Culture,no data,Hardbottom ,no data,no data,no data,no data,no data,NO,none,none,none,none,none,none,none,0%,no data,no data,no data,no data,no data, 
In Person, Cory Walter,6/11/2015,13:00,Summerland Key,FL, Research,Mote Marine Laboratory,24.59297,-81.39802,25, Original Birthday,no data,Patch Reef,no data,no data,no data,no data,mostly cloudy,YES,paling,none,paling,paling,none,none,none,1-10%,25,17,fire coral,no data,no data,
Email, Mitch Andrews,6/15/2015,9:30,Summerland Key,FL,Education,Order of the Arrow,24.54467,-81.40968,25, Sombrero Reef SPA, North of Lighthouse,Hardbottom ,no data,no data,no data,no data,partly cloudy,YES,upper surface,none,none,partial bleaching,none,none,none,1-10%,25,20,no data,no data,no data,
In Person, Cory Walter,6/15/2015,14:00,Summerland Key,FL, Research,Mote Marine Laboratory,24.55245,-82.89775,22,Davis Reef,Davis Reef,Bank Reef,no data,no data,no data,no data,no data,NO,none,none,none,none,none,none,none,0%,no data,no data,no data,no data,no data,
In Person, Cory Walter,6/16/2015,9:30,Summerland Key,FL, Research,Mote Marine Laboratory,24.61969,-82.92044,16, Dry Tortugas National Park,Site 1,other/don't know,no data,no data,no data,no data,no data,NO,none,none,none,none,none,none,none,0%,no data,no data,no data,no data,no data,
In Person, Cory Walter,6/17/2015,10:00,Summerland Key,FL, Research,Mote Marine Laboratory,24.61889,-82.92301,24, Dry Tortugas National Park,Site 2,other/don't know,no data,no data,no data,no data,no data,NO,none,none,none,none,none,none,none,0%,no data,no data,no data,no data,no data,
In Person, Cory Walter,6/17/2015,no data,Summerland Key,FL, Research,Mote Marine Laboratory,24.64554,-83.03252,69, Joe's Reef,no data,Deep Reef,no data,no data,no data,no data,no data,NO,none,none,none,none,none,none,none,0%,no data,no data,no data,no data,no data,
In Person, Cory Walter,6/18/2015,no data,Summerland Key,FL, Research,Mote Marine Laboratory,24.61006,-82.94866,no data, Dry Tortugas National Park,The Maze,other/don't know,no data,no data,no data,no data,no data,NO,none,none,none,none,none,none,none,0%,no data,no data,no data,no data,no data,
Email, Cindy Lewis,6/19/2015,no data,Long Key,FL, Research, Keys Marine Lab,24.75568,-80.74890,78, Tennessee Reef , KERR4,Deep Reef, 5-10 kts,88,84,84,clear,YES,paling,none,none,paling,none,none,paling,1-10%,80,60,gorgonians,no data,no data," S sid, Eusmillia, Pseudoplexaura dead X muta - wasting disease?"
Email, Cindy Lewis,6/19/2015,no data,Long Key,FL, Research, Keys Marine Lab,24.82457,-80.68630,20, Alligator Reef SPA, COF SFTCRL2,Patch Reef, 5-10 kts,88,86,86,clear,YES,paling,none,paling,none,none,none,none,1-10%,20,15,no data,no data,no data," D strig - upper surface (photo submitted) C nat, D strig (also observed at this site 5/10/2015) BBD"
Email, Mitch Andrews,6/20/2015,12:00,Summerland Key,FL,Education,Order of the Arrow,24.62953,-81.11252,20, Looe Key SPA, Far East Bouy,Bank Reef, 0-5 kts,no data,no data,no data,partly cloudy,NO,none,none,none,none,none,none,none,0%,no data,no data,no data,no data,no data,
Email,Lauri Maclaughlin,6/20/2015,no data,Key Largo ,FL,Research,NOAA,24.56267,-81.56262,30,Maryland Shoals,no data,Bank Reef,no data,no data,no data,no data,no data,YES,paling,none,paling,partial bleaching,partial bleaching,none,none,no data,no data,no data,gorgonians,no data,no data,
Email,Lauri Maclaughlin,6/20/2015,no data,Key Largo ,FL,Research,NOAA,24.60225,-81.20513,26,South of Little Duck Key,no data,other/don't know,no data,no data,no data,no data,no data,YES,paling,no data,no data,no data,no data,no data,no data,11-30%,no data,no data,no data,no data,no data,
Email,Lauri Maclaughlin,6/20/2015,no data,Key Largo ,FL,Research,NOAA,24.59208,-81.21892,49,South of Little Duck Key,no data,other/don't know,no data,no data,no data,no data,no data,YES,paling,no data,no data,no data,no data,no data,no data,11-30%,no data,no data,no data,no data,no data,
Email,Lauri Maclaughlin,6/20/2015,no data,Key Largo ,FL,Research,NOAA,24.58542,-81.25268,32,South of Bahia Honda Key,no data,other/don't know,no data,no data,no data,no data,no data,YES,paling,no data,no data,no data,no data,no data,no data,11-30%,no data,no data,no data,no data,no data,
Email,Lauri Maclaughlin,6/20/2015,no data,Key Largo ,FL,Research,NOAA,24.66948,-81.06467,30,East Washerwoman Shoal,no data,other/don't know,no data,no data,no data,no data,no data,YES,paling,no data,no data,no data,no data,no data,no data,11-30%,no data,no data,no data,no data,no data,
Email,Lauri Maclaughlin,6/20/2015,no data,Key Largo ,FL,Research,NOAA,24.51100,-81.56720,21,Maryland Shoals,no data,other/don't know,no data,no data,no data,no data,no data,YES,paling,no data,no data,no data,no data,no data,no data,11-30%,no data,no data,no data,no data,no data,
Email,Lauri Maclaughlin,6/20/2015,no data,Key Largo ,FL,Research,NOAA,24.52738,-81.52293,12,American Shoal,no data,other/don't know,no data,no data,no data,no data,no data,YES,paling,no data,no data,no data,no data,no data,no data,11-30%,no data,no data,no data,no data,no data,
Email,Lauri Maclaughlin,6/20/2015,no data,Key Largo ,FL,Research,NOAA,24.52190,-81.52278,27,American Shoal,no data,other/don't know,no data,no data,no data,no data,no data,YES,paling,no data,no data,no data,no data,no data,no data,11-30%,no data,no data,no data,no data,no data,
Email,Lauri Maclaughlin,6/20/2015,no data,Key Largo ,FL,Research,NOAA,24.52608,-81.50367,26,American Shoal,no data,other/don't know,no data,no data,no data,no data,no data,YES,paling,no data,no data,no data,no data,no data,no data,11-30%,no data,no data,no data,no data,no data,
Email,Lauri Maclaughlin,6/20/2015,no data,Key Largo ,FL,Research,NOAA,24.59302,-81.39772,25,South of Newfound Harbor,no data,other/don't know,no data,no data,no data,no data,no data,YES,paling,no data,no data,no data,no data,no data,no data,11-30%,no data,no data,no data,no data,no data,
Email,Lauri Maclaughlin,6/20/2015,no data,Key Largo ,FL,Research,NOAA,24.58355,-81.43275,26,Northwest of Looe Key,no data,other/don't know,no data,no data,no data,no data,no data,YES,paling,no data,no data,no data,no data,no data,no data,11-30%,no data,no data,no data,no data,no data,
Email,Lauri Maclaughlin,6/20/2015,no data,Key Largo ,FL,Research,NOAA,24.57533,-81.44495,32,Northwest of Looe Key,no data,other/don't know,no data,no data,no data,no data,no data,YES,paling,no data,no data,no data,no data,no data,no data,11-30%,no data,no data,no data,no data,no data,
Email,Lauri Maclaughlin,6/20/2015,no data,Key Largo ,FL,Research,NOAA,24.55347,-81.43355,25,Northwest of Looe Key,no data,other/don't know,no data,no data,no data,no data,no data,YES,paling,no data,no data,no data,no data,no data,no data,11-30%,no data,no data,no data,no data,no data,
Email,Lauri Maclaughlin,6/20/2015,no data,Key Largo ,FL,Research,NOAA,24.53052,-81.48757,26,West of American Shoal,no data,other/don't know,no data,no data,no data,no data,no data,YES,paling,no data,no data,no data,no data,no data,no data,11-30%,no data,no data,no data,no data,no data,
Email,Lauri Maclaughlin,6/20/2015,no data,Key Largo ,FL,Research,NOAA,24.53000,-81.47765,49,West of American Shoal,no data,other/don't know,no data,no data,no data,no data,no data,YES,paling,no data,no data,no data,no data,no data,no data,11-30%,no data,no data,no data,no data,no data,
Email,Lauri Maclaughlin,6/20/2015,no data,Key Largo ,FL,Research,NOAA,24.53388,-81.47165,19,West of American Shoal,no data,other/don't know,no data,no data,no data,no data,no data,YES,paling,no data,no data,no data,no data,no data,no data,11-30%,no data,no data,no data,no data,no data,
Email,Lauri Maclaughlin,6/20/2015,no data,Key Largo ,FL,Research,NOAA,24.54310,-81.47065,30,Northeast of American Shoal,no data,other/don't know,no data,no data,no data,no data,no data,YES,paling,no data,no data,no data,no data,no data,no data,11-30%,no data,no data,no data,no data,no data,
Email,Lauri Maclaughlin,6/20/2015,no data,Key Largo ,FL,Research,NOAA,24.56302,-81.40228,22,West of Looe Key Research Only Area,no data,other/don't know,no data,no data,no data,no data,no data,YES,paling,no data,no data,no data,no data,no data,no data,11-30%,no data,no data,no data,no data,no data,
Email,Lauri Maclaughlin,6/20/2015,no data,Key Largo ,FL,Research,NOAA,24.55833,-81.35378,29,West of Big Pine Shoal,no data,other/don't know,no data,no data,no data,no data,no data,YES,paling,no data,no data,no data,no data,no data,no data,11-30%,no data,no data,no data,no data,no data,
In Person, Cory Walter,6/22/2015,no data,Summerland Key,FL, Research,Mote Marine Laboratory,24.56760,-81.32977,25, Site O outplant,no data,other/don't know,no data,no data,no data,no data,no data,NO,none,none,none,none,none,none,none,0%,no data,no data,no data,no data,no data,
In Person, Cory Walter,6/22/2015,no data,Summerland Key,FL, Research,Mote Marine Laboratory,24.55290,-81.38015,22, Site P Outplant,no data,other/don't know,no data,no data,no data,no data,no data,NO,none,none,none,none,none,none,none,0%,no data,no data,no data,no data,no data,
Email, Cindy Lewis,6/22/2015,no data,Long Key,FL, Research, Keys Marine Lab,24.72285,-80.86166,20, Tennessee Reef , 11' Mound,Patch Reef, 5-10 kts,88,86,86,no data,NO,none,none,none,none,none,none,none,0%,no data,no data,no data,no data,no data,
Email, Cindy Lewis,6/22/2015,no data,Long Key,FL, Research, Keys Marine Lab,24.75824,-80.76594,25, Tennessee Reef , Stag Party East,Patch Reef, 5-10 kts,88,86,86,clear,NO,none,none,none,none,none,none,none,0%,no data,no data,no data,no data,no data,
Email, Cindy Lewis,6/22/2015,no data,Long Key,FL, Research, Keys Marine Lab,24.74550,-80.77892,20, Tennessee Reef , Tennessee Tower,Bank Reef, 5-10 kts,88,86,86,clear,NO,none,none,none,none,none,none,none,0%,no data,no data,no data,no data,no data,observations by visiting science diver
In Person,Cory Walter,6/24/2015,no data,Summerland Key,FL, Research,Mote Marine Laboratory,24.52292,-81.51683,25,Site Q Outplant,American,Bank Reef,no data,no data,no data,no data,no data,NO,none,none,none,none,none,none,none,0%,no data,no data,no data,no data,no data,
Email, Stephanie Schopmeyer,6/25/2015,10:00,Miami ,FL, Research, University of Miami/RSMAS,25.44130,-80.13380,16, Steph's Reef,no data,Patch Reef,no data,no data,no data,86,no data,YES,partial bleaching,partial bleaching,none,none,none,none,none,1-10%,16,13,no data,no data,no data,Went out to observe some outplants from a couple of months ago- the severity of bleaching ranged from just paling to partial bleaching of horizontal branches on Acer
Email, Ben Bartels,6/27/2015,14:15,Big Pine Key,FL, Resident,Big Pine Key Resident,24.61637,-81.39136,9, Newfound Harbor SPA, buoy 5 (east patch),Patch Reef, 0-5 kts,90,87.8,no data,partly cloudy,NO,none,none,none,none,none,none,none,0%,no data,no data,no data,no data,no data,
Email, Kara Claycomb,6/28/2015,14:40,Key West,FL, Research,Dry Tortugas NPS,24.65500,-82.91278,12, Dry Tortugas National Park,no data,Patch Reef, 0-5 kts,90,no data,no data,partly cloudy,YES,partial bleaching,paling,partial bleaching,partial bleaching,none,none,none,1-10%,11,7.5,no data,no data,no data,3 colonies of OFAV had black band.  5% of corals had recent death
In Person, Cory Walter,6/29/2015,14:00,Summerland Key,FL, Research,Mote Marine Laboratory,24.55320,-81.43758,22, ACER 24,no data,other/don't know, Calm,no data,no data,no data,no data,NO,none,none,none,none,none,none,none,0%,no data,no data,no data,no data,no data,
In Person, Cory Walter,6/29/2015,10:00,Summerland Key,FL, Research,Mote Marine Laboratory,24.53701,-81.43031,80, Looe Deep Reef, broken buoy,Deep Reef, Calm,no data,no data,no data,no data,YES,paling,none,none,paling,none,none,none,1-10%,80,60,no data,no data,no data,Mostly just SSID
In Person,Cory Walter,6/30/2015,10:30:00,Summerland Key,FL, Research,Mote Marine Laboratory,24.45247,-81.88059,19,Sand Key,no data,other/don't know,no data,no data,no data,no data,no data,YES,paling,none,paling,paling,none,none,none,1-10%,no data,no data,no data,no data,no data,
Email,Mitch Andrews,7/2/2015,11:00,Summerland Key,FL,Education,Order of the Arrow,24.52600,-81.55175,25,Lower Keys,no data,Patch Reef,15-20 kts,88,no data,no data,partly cloudy,YES,paling,none,none,paling,none,none,none,11-30%,10,8,no data,no data,no data,
Email,Andy Widman,7/6/2015,16:30,Summerland Key,FL,Education,Order of the Arrow,24.66600,-81.07095,15,East Washerwerwoman,SSW of marker,Patch Reef,no data,no data,no data,no data,partly cloudy,YES,paling,none,none,paling,none,none,none,1-10%,15,8,no data,no data,no data,
Email,Andy Widman,7/6/2015,17:30,Summerland Key,FL,Education,Order of the Arrow,24.66504,-81.07352,no data,East Washerwerwoman,SSW of marker,Patch Reef,no data,no data,no data,no data,no data,NO,none,none,none,none,none,none,none,0%,no data,no data,no data,no data,no data,
Email, Cindy Lewis,7/6/2015,10:00,Long Key,FL, Research, Keys Marine Lab,24.90046,-80.61723,20, Cheeca Rocks SPA,no data,Patch Reef, 5-10 kts,90,86,86,clear,YES,paling,none,paling,paling,none,none,none,1-10%,20,15,no data,no data,no data,"paling noted: S sid, D strig, M cav, C nat, P ast BBD: D strig - photos observations made by KML staff and visiting researcher"
Email, Cindy Lewis,7/6/2015,12:00,Long Key,FL, Research, Keys Marine Lab,24.84724,-80.62019,25, Alligator Reef SPA, Allig #1 west end,Bank Reef, 5-10 kts,90,86,86,clear,YES,paling,paling,none,none,none,none,none,1-10%,20,20,no data,no data,no data,A cerv outplants along ledge - paling branches (not the growth tips)
Email,Andy Widman,7/7/2015,10:45,Summerland Key,FL,Education,Order of the Arrow,24.68440,-80.96650,no data, Coffins Patch SPA,NNW of Wreck,Bank Reef,5-10 kts,no data,no data,no data,no data,YES,upper surface,none,paling,none,none,none,none,1-10%,20,10,no data,no data,no data,
Email,Andy Widman,7/7/2015,10:45,Summerland Key,FL,Education,Order of the Arrow,24.68489,-80.96512,no data, Coffins Patch SPA,NNW of Wreck,Bank Reef,5-10 kts,no data,no data,no data,no data,YES,paling,paling,none,none,none,none,none,11-30%,20,10,no data,no data,no data,
Email,Andy Widman,7/7/2015,10:45,Summerland Key,FL,Education,Order of the Arrow,24.68188,-80.97092,no data, Coffins Patch SPA,NNW of Wreck,Bank Reef,5-10 kts,no data,no data,no data,no data,YES,paling,none,none,paling,none,none,none,11-30%,20,10,no data,no data,no data,
Email,Andy Widman,7/7/2015,10:45,Summerland Key,FL,Education,Order of the Arrow,24.68500,-80.96700,no data, Coffins Patch SPA,NNW of Wreck,Bank Reef,5-10 kts,no data,no data,no data,no data,NO,none,none,none,none,none,none,none,0%,no data,no data,no data,no data,no data,
In Person,Cory Walter,7/7/2015,9:00,Summerland Key,FL, Research,Mote Marine Laboratory,24.55268,-81.38230,no data,CWV Site,no data,other/don't know,no data,no data,no data,no data,no data,YES,paling,none,paling,paling,none,none,none,1-10%,no data,no data,no data,no data,no data,
In Person,Cory Walter,7/7/2015,12:00,Summerland Key,FL, Research,Mote Marine Laboratory,24.62148,-81.36317,no data,Inshore Coral Culture,no data,other/don't know,no data,no data,no data,no data,no data,NO,none,none,none,none,none,none,none,0%,no data,no data,no data,no data,no data,
In Person,Cory Walter,7/8/2015,10:00,Summerland Key,FL,Research,Mote Marine Laboratory,24.53701,-81.43031,70, Looe Deep Reef,no data,Deep Reef,no data,no data,no data,no data,no data,YES,paling,none,none,paling,paling,none,paling,1-10%,no data,no data,no data,no data,no data,Mostly SSID
In Person,Cory Walter,7/8/2015,13:00,Summerland Key,FL,Research,Mote Marine Laboratory,24.55182,-81.38751,no data,Site N Outplant,no data,other/don't know,no data,no data,no data,no data,no data,NO,none,none,none,none,none,none,none,0%,no data,no data,no data,no data,no data,
In Person,Cory Walter,7/9/2015,10:00,Summerland Key,FL,Research,Mote Marine Laboratory,24.55290,-81.38015,no data,Site P Ouptlant,no data,other/don't know,no data,no data,no data,no data,no data,YES,paling,none,none,paling,none,none,none,1-10%,no data,no data,no data,no data,no data,
Email,Destiny Freeman,7/10/2015,10:00,Summerland Key,FL,Education,Order of the Arrow,24.54587,-81.40658,no data,Looe Key SPA,no data,Bank Reef,no data,no data,no data,no data,partly cloudy,YES,paling,paling,paling,paling,none,none,none,1-10%,20,15,no data,no data,no data,
Email, Ashley Siana,7/11/2015,13:00,Key West,FL, Research,Dry Tortugas NPS,24.61362,-82.87085,15, Magic Castle,no data,Patch Reef, 5-10 kts,no data,85,no data,partly cloudy,NO,none,none,none,none,none,none,none,0%,no data,no data,no data,no data,no data,
Email,Ryann Valmonte,7/11/2015,11:00,Key Largo,FL, Resident,Upper Keys Resident,25.13822,-80.28880,25,North North Dry Rocks,no data,other/don't know, 5-10 kts,no data,no data,no data,clear,YES,paling,paling,paling,paling,none,none,none,1-10%,25,8,no data,no data,no data,
Email, Ian Tomcho,7/11/2015,10:00,Key West,FL, Research,Dry Tortugas NPS,24.62079,-82.86737,10, Dry Tortugas National Park,Near Bush Key,Patch Reef,no data,no data,no data,84.8,partly cloudy,YES,paling,paling,unknown,none,none,none,none,11-30%,8,6,no data,no data,no data,
Email, Ian Tomcho,7/11/2015,12:00,Key West,FL, Research,Dry Tortugas NPS,24.62053,-82.86911,8, Dry Tortugas National Park,Site 1,Patch Reef,no data,no data,84,84,partly cloudy,YES,paling,paling,unknown,none,none,none,none,1-10%,8,6,no data,no data,no data,
Email, Ashley Siana,7/11/2015,12:00,Key West,FL, Research,Dry Tortugas NPS,24.61616,-82.86726,75, Dry Tortugas National Park,Site 2,other/don't know, 5-10 kts,no data,90,85,partly cloudy,YES,paling,none,none,paling,none,none,none,11-30%,65,45,no data,no data,no data,
Email, Ben Bartels,7/12/2015,10:45,Big Pine Key,FL, Resident,Big Pine Key Resident,24.54566,-81.40498,25,Looe Key SPA, buoy 10,Bank Reef, 5-10 kts,90,84.3,no data,partly cloudy,YES,upper surface,none,none,paling,none,none,none,1-10%,21,15,no data,no data,no data,
In Person,Cory Walter,7/13/2015,12:00,Summerland Key,FL, Research,Mote Marine Laboratory,24.45247,-81.88059,no data,Site S Outplant,no data,other/don't know,no data,no data,no data,no data,no data,YES,paling,none,paling,paling,none,none,paling,1-10%,no data,no data,fire coral,no data,no data,
Email, Ashley Siana,7/13/2015,12:00,Key West,FL, Research,Dry Tortugas NPS,24.82694,-82.93333,49, Dry Tortugas National Park,Site 3,Bank Reef, 0-5 kts,no data,no data,82,partly cloudy,YES,paling,unknown,none,none,none,none,none,1-10%,no data,no data,palythoa,no data,no data,
Email, Teri Gauthier,7/14/2015,12:00,Key West,FL, Resident,Key West Resident,24.54309,-81.79013,15, coral heads off of the Casa Marina in Key West,no data,Hardbottom , 0-5 kts,90,no data,no data,no data,YES,partial bleaching,none,partial bleaching,partial bleaching,partial bleaching,none,none,31-50%,15,6,gorgonians,no data,no data,"There was a lot of what looked like older damage to many of the large boulder corals, with algae growth"
Email, Ashley Siana,7/14/2015,no data,Key West,FL, Research,Dry Tortugas NPS,24.82694,-82.93330,51, Dry Tortugas National Park,Site 4,Bank Reef, 5-10 kts,no data,82,no data,partly cloudy,YES,paling,partial bleaching,none,none,none,none,none,1-10%,30,15,palythoa,no data,no data,
Email, Gabrielle Renchen,7/14/2015,12:00,Marathon,FL, Research,Florida Fish and Wildlife (FWC),24.55704,-81.50890,24, Coral no trap area # 9 (Areas created by Gulf Council closed to," ~~100m from coords, 270 heading",Mid-Channel Reef, 10-15 kts,no data,no data,84,partly cloudy,YES,paling,none,paling,paling,none,none,none,1-10%,24,19,no data,no data,no data,"Species paling: Mcav, Pstr"
Email, Kayla Nimmo,7/15/2015,12:00,Key West,FL, Research,Dry Tortugas NPS,24.61006,-82.94866,38, Shallow Maze,no data,Bank Reef, 0-5 kts,no data,85,no data,partly cloudy,YES,paling,none,none,paling,none,none,none,1-10%,32,25,no data,no data,no data,
Email, Gabrielle Renchen,7/15/2015,12:23,Marathon,FL, Research,Florida Fish and Wildlife (FWC),24.46127,-81.84614,15, Eastern Dry Rocks SPA," 0-100 m from coords, 260 heading",Bank Reef,no data,no data,no data,86,partly cloudy,YES,paling,none,none,none,none,none,none,1-10%,15,6,palythoa,no data,no data,Lots of Palythoa paling
In Person,Cory Walter,7/16/2015,10:00,Summerland Key,FL, Research,Mote Marine Laboratory,24.45235,-81.88078,no data,Sand Key,no data,Bank Reef,no data,no data,no data,no data,no data,YES,paling,paling,none,paling,none,none,paling,1-10%,no data,no data,no data,no data,no data,
Email, Katy McGinnis,7/16/2015,12:30,Key Largo,FL,Education,Marine Resources,25.01052,-80.37251,no data, Molasses,no data,Bank Reef, 5-10 kts,no data,no data,no data,no data,NO,none,none,none,none,none,none,none,0%,no data,no data,no data,no data,no data,
Email, Stephanie Schopmeyer,7/16/2015,12:00,Miami,FL, Research, University of Miami/RSMAS,25.36260,-80.16640,20, South Nursery Patch Reef,no data,other/don't know,no data,88,87,87,partly cloudy,NO,none,none,none,none,none,none,none,0%,no data,no data,no data,no data,no data,
Email, Gabrielle Renchen,7/16/2015,no data,Marathon,FL, Research,Florida Fish and Wildlife (FWC),24.45105,-81.89719,27, ~1.5 miles west of Sand Key SPA," ~80m from coords, 70 heading",Bank Reef, 0-5 kts,no data,no data,86,partly cloudy,YES,paling,none,none,partial bleaching,none,none,none,1-10%,27,25,no data,no data,no data,Siderastrea siderea partially bleached-fluorescing
Email, Stephanie Schopmeyer,7/17/2015,no data,Miami,FL, Research, University of Miami/RSMAS,25.58850,-80.10440,15, Fowey Rocks,no data,Hardbottom ,no data,no data,no data,87,clear,NO,partial bleaching,none,none,none,none,none,none,0%,15,12,fire coral,no data,no data,No hard corals were bleaching but MALC were pale or partially bleached.
Email, Sarah Egner,7/17/2015,12:00,Key Largo,FL,Education,Marine Resources,25.01052,-80.37251,25, Molasses, 9/Winch Hole,Bank Reef,no data,no data,no data,no data,clear,YES,paling,none,none,paling,none,none,none,1-10%,20,20,palythoa,no data,no data,Orbicella  faveolata paling
Email, Cindy Lewis,7/17/2015,10:00,Long Key,FL, Research, Keys Marine Lab,24.76656,-80.75404,20, Tennessee ROA, NE corner,Patch Reef, 0-5 kts,90,88,88,partly cloudy,YES,paling,none,paling,paling,none,none,none,1-10%,20,15,palythoa,no data,no data," paling: M cav, Meandrina, Diploria spp, C nat A cerv looked fine but ~ 30-40% los of live colonies after 2014 bleaching, lots of fireworm predation.  No active disease observed"
Email, Cindy Lewis,7/17/2015,12:00,Long Key,FL, Research, Keys Marine Lab,24.76656,-80.75404,20, Tennessee ROA,no data,Patch Reef, 5-10 kts,90,88,88,clear,YES,paling,none,paling,paling,none,none,none,1-10%,20,18,palythoa,no data,no data,"A cerv looked fine so far but lots of fireworm predation, paling: M cav, C nat, D cliv, S sid.  No disease observed"
In Person,Cory Walter,7/20/2015,12:00,Summerland Key,FL,Research,Mote Marine Laboratory,24.55268,-81.38230,25,CWV Site,no data,Patch Reef,5-10 kts,no data,no data,no data,no data,YES,paling,none,paling,paling,none,none,none,1-10%,no data,no data,palythoa,fire coral,no data,
Email, Jessica Dockery,7/22/2015,10:00,Key Largo,FL,Education,Marine Resources,25.03530,-80.34730,35, French Reef, F5,Bank Reef, 5-10 kts,no data,no data,83,partly cloudy,YES,paling,paling,partial bleaching,paling,none,none,none,1-10%,35,15,no data,no data,no data,
Email, Jessica Dockery,7/22/2015,11:00,Key Largo,FL,Education,Marine Resources,25.00805,-80.37758,30, Molasses, M25,Bank Reef, 5-10 kts,no data,no data,84,partly cloudy,YES,paling,partial bleaching,partial bleaching,paling,none,none,none,1-10%,30,15,no data,no data,no data,
Email, Cindy Lewis,7/23/2015,10:30,Long Key,FL, Research, Keys Marine Lab,24.94627,-80.47065,25, U-55, Little Conch Reef,Patch Reef, 0-5 kts,90,87,88,partly cloudy,YES,paling,paling,paling,paling,none,none,none,1-10%,25,20,no data,no data,no data,"paling: D strig, Meandrina, D lab disease: A cerv - WBD/RTL"
Email, Cindy Lewis,7/23/2015,14:00,Long Key,FL, Research, Keys Marine Lab,24.94283,-80.49645,25,Davis Reef,U-90,Patch Reef, 0-5 kts,90,86,88,partly cloudy,YES,paling,paling,paling,paling,none,none,none,1-10%,25,20,no data,no data,no data," M cav, S bour, C nat, P por A cerv - WBD/RTL, O ann - WP?"
Email,Andy Widman,7/24/2015,16:00,Summerland Key,FL,Education,Order of the Arrow,24.62572,-81.11760,25, Sombrero Reef SPA,West of Lighthouse,Bank Reef,no data,no data,no data,no data,no data,YES,upper surface,none,none,paling,none,none,none,1-10%,25,15,no data,no data,no data,
Email, Cindy Lewis,7/24/2015,10:00,Long Key,FL, Research, Keys Marine Lab,24.77723,-80.73637,25, Tennessee Reef ,Stag Party East,Patch Reef, 5-10 kts,90,86,88,partly cloudy,YES,paling,paling,none,none,none,none,none,1-10%,25,20,fire coral,no data,no data,"as reported by L Larson - A cerv monitoring some A cerv - pale, WBD/RTL"
Email, Cindy Lewis,7/24/2015,12:00,Long Key,FL, Research, Keys Marine Lab,24.75830,-80.76575,25, Tennessee Reef ,Stag Party East,Patch Reef, 5-10 kts,90,86,89,partly cloudy,YES,paling,paling,none,none,none,none,none,1-10%,25,20,no data,no data,no data,"reported by L Larson - A cerv monitoring site, some A cerv pale bottom 5' noticeably hot and green - shimmering picnocline"
Email,Andy Widman,7/26/2015,13:30,Summerland Key,FL,Education,Order of the Arrow,24.68997,-81.02950,25,Marker 48,2 buoys west of marker,other/don't know,no data,no data,no data,no data,no data,NO,none,none,none,none,none,none,none,0%,25,10,no data,no data,no data,
Email,Billy Causey,7/28/2015,no data,Key West,FL,Research,Florida Keys National Marine Sanctuary,24.54433,-81.40851,no data,Looe Key SPA,no data,Bank Reef,no data,no data,no data,no data,no data,YES,paling,no data,no data,no data,no data,no data,no data,1-10%,no data,no data,no data,no data,no data,
Email,Billy Causey,7/28/2015,no data,Key West,FL,Research,Florida Keys National Marine Sanctuary,24.56936,-81.33000,no data,Billy's Reef,no data,other/don't know,no data,no data,no data,no data,no data,YES,paling,no data,no data,no data,no data,no data,no data,1-10%,no data,no data,no data,no data,no data,
Email,Billy Causey,7/28/2015,no data,Key West,FL,Research,Florida Keys National Marine Sanctuary,24.58620,-81.25047,no data,Bahia Honda,no data,other/don't know,no data,no data,no data,no data,no data,YES,paling,no data,no data,no data,no data,no data,no data,1-10%,no data,no data,no data,no data,no data,
Email,Lauri Maclaughlin,7/30/2015,no data,Key Largo,FL, Research,NOAA,25.11167,-80.30917,no data,Lil'Grecian Rocks,no data,other/don't know,no data,no data,no data,no data,no data,NO,none,none,none,none,none,none,none,0%,no data,no data,no data,no data,no data,
Email,Lauri Maclaughlin,7/30/2015,no data,Key Largo,FL, Research,NOAA,25.05230,-80.33193,no data,Benwood,no data,other/don't know,no data,no data,no data,no data,no data,YES,paling,none,paling,Bleaching,no data,no data,no data,no data,no data,no data,no data,no data,no data,
Email,Lauri Maclaughlin,7/30/2015,no data,Key Largo,FL, Research,NOAA,25.14695,-80.25577,no data,City of Washington,no data,other/don't know,no data,no data,no data,no data,no data,YES,paling,none,no data,no data,no data,no data,no data,no data,no data,no data,fire coral,no data,no data,
Email, Danielle Dodge,8/1/2015,no data,Summerland Key,FL,Education,Order of the Arrow,24.54626,-81.40318,27,Looe Key SPA, Looe Key,other/don't know,no data,no data,no data,no data,no data,NO,none,none,none,none,none,none,none,0%,no data,no data,no data,no data,no data,Some signs of white band and other disease but no bleaching and overall a
Email, Ben Bartels,8/2/2015,13:45,Big Pine Key,FL, Resident,Big Pine Key Resident,24.61863,-81.38034,9, patch E. of NFH,no data,Patch Reef,no data,90,87,no data,partly cloudy,YES,paling,none,paling,paling,none,none,none,51-75%,9,5,fire coral,no data,no data,
Email, Cindy Lewis,8/3/2015,18:00,Long Key,FL, Research, Keys Marine Lab,24.68188,-80.97092,25, Coffins Patch SPA, Pillar Patch,Patch Reef, 0-5 kts,88,88,90,partly cloudy,YES,paling,paling,Bleaching,paling,none,none,none,51-75%,25,20,fire coral,no data,no data," D cyl, M cav, C nat, P por, M mean, D lab, some octos, M mean, M alc, C nat Partial.  MCAV, DCY, BBD…DCYL WB"
Facebook, Kelli O'Donnell,8/4/2015,7:30,Summerland Key,FL, Resident,Lower Keys Resident,24.99980,-81.44386,35, Coral Restoration Foundation Nursery,no data,other/don't know,no data,no data,no data,86,clear,NO,none,none,none,none,none,none,none,0%,no data,no data,no data,no data,no data,"While I did not see any paling or bleaching, there was a lot of white banddisease and death due to that disease on their staghorn corals."
In Person, Cory Walter,8/4/2015,10:00,Summerland Key,FL, Research,Mote Marine Laboratory,24.54985,-81.37898,80, Hill's Research Site,no data,Deep Reef,no data,no data,no data,no data,no data,YES,paling,paling,paling,paling,paling,unknown,paling,31-50%,80,60,fire coral,no data,no data,
In Person, Cory Walter,8/5/2015,12:00,Summerland Key,FL, Research,Mote Marine Laboratory,24.61628,-81.39023,15, Newfound Harbor SPA,no data,other/don't know,no data,no data,no data,no data,no data,NO,none,none,none,none,none,none,none,0%,no data,no data,fire coral,no data,no data,
Email, Lauri MacLaughlin,8/6/2015,10:30,Key Largo,FL, Research,NOAA,25.13963,-80.29403,10, Horseshoe Reef, H2,Patch Reef, 0-5 kts,no data,no data,no data,clear,YES,paling,none,Bleaching,none,partial bleaching,none,paling,1-10%,15,10,fire coral,no data,no data,"Brain coral (Dstrigosa shallow colony up by Apal north patch) bleached at Horseshoe (nearly white), and at Sand Island (all Dstr were paled). Those at Pillar coral at HS (by H2 buoy) - SPAWNED 8/3 9:15-9:25 pm, not bleached, observe spawning at HS (wasn't there to see if they also released).  "
Email, Trudy Ferraro,8/6/2015,9:00,Key Largo,FL,Research,FPS Pennekamp,25.04166,-80.42394,9, Three sisters,no data,Patch Reef, 10-15 kts,no data,86,86,no data,YES,paling,none,none,paling,none,none,paling,1-10%,9,9,no data,no data,no data,Some signs of white band and other disease but no bleaching and overall a very healthy reef
Email, Cindy Lewis,8/6/2015,14:00,Long Key,FL, Research, Keys Marine Lab,24.83770,-80.72849,20, Coral Gardens - Middle Keys,no data,Patch Reef, 0-5 kts,90,88,90,clear,YES,partial bleaching,none,Bleaching,partial bleaching,none,none,none,11-30%,20,15,no data,no data,no data,"as reported by visiting scientist while snorkeling:
bleached: D lab, P ast
pale: D lab, P ast"
Email, Lauri MacLaughlin,8/6/2015,10:00,Key Largo,FL, Research,NOAA,25.04636,-80.39649,21," Sand Island Reef, Key Largo",no data,Bank Reef, 5-10 kts,no data,no data,no data,clear,YES,paling,none,paling,paling,none,none,none,1-10%,21,15,fire coral,palythoa,no data,"Brain corals (D. strigosa) were paled (approx. 5 colonies in a cluster), and at least 2 colonies spawned 8/6 between 10:15-11:15, possibly up to 11:30 (still going off when I left to monitor Mfav/Orbicella.  White pox is visible on Apal, no spawning this night of 8/6/2015, but did spawn 8/4 pm.  One Mfav had partial paling - with a paled top, but the base was OK.  spawn) on 8/6 - not setting until 11:15 or later, releasing close to 11:30, and up to 12:30 pm. Several larger colonies did not set or spawn this night."
In Person, Cory Walter,8/7/2015,10:00,Summerland Key,FL, Research,Mote Marine Laboratory,24.55290,-81.38015,25, Site P Outplant,no data,other/don't know,no data,no data,no data,no data,no data,YES,paling,paling,none,paling,none,none,paling,1-10%,no data,no data,fire coral,no data,no data,
In Person, Cory Walter,8/7/2015,12:00,Summerland Key,FL, Research,Mote Marine Laboratory,24.56760,-81.32977,no data, Site O outplant,no data,other/don't know,no data,no data,no data,no data,no data,YES,paling,paling,paling,paling,none,none,none,1-10%,no data,no data,fire coral,palythoa,no data,
Email,David Bosch,8/8/2015,12:00,Marathon,FL, Resident,Captain Hooks Dive Center,24.68448,-80.96598,22, Coffins Patch SPA,no data,Bank Reef,no data,no data,91,no data,no data,YES,paling,no data,paling,paling,no data,no data,no data,1-10%,no data,no data,fire coral,no data,no data,
Email, Gabrielle Renchen,8/8/2015,11:00,Marathon,FL, Research,Florida Fish and Wildlife (FWC),24.71277,-80.94458,27, West Turtle Shoal, Eastern edge of patch reef,Patch Reef, Calm,90,no data,88,partly cloudy,YES,partial bleaching,none,Bleaching,paling,none,none,partial bleaching,11-30%,27,15,fire coral,palythoa,no data," Bleached: Colpophyllia natans, Pseudodiploria strigosa, Diploria lab.  Partially bleached:  Eusmilia fastigiana, Millepora complanata, Palythoa.  Paling..Mcav, Pcli, Palythoa"
Email,Lonny Anderson,8/9/2015,no data,Key West,FL,Research,Florida Keys National Marine Sanctuary,24.52573,-81.65139,no data,South of Geiger Key,no data,Mid-Channel Reef,no data,no data,no data,no data,no data,YES,paling,none,paling,none,none,none,none,1-10%,no data,no data,no data,no data,no data,
Email, Karen Neely,8/9/2015,no data,Marathon,FL, Research,Florida Fish and Wildlife (FWC),24.62079,-82.86737,20, Dry Tortugas National Park,Near Bush Key,other/don't know, 0-5 kts,no data,no data,82,no data,YES,partial bleaching,paling,paling,none,none,none,none,11-30%,20,5,fire coral,no data,no data,"Dendrogyra VERY pale, with some partial bleaching. A. palmata looked fine.  O. annularis, O. faveolata, D. strigosa, D. clivosa all pale. M. alcicornis quite bleached"
Facebook,Kelli O'Donnell,8/11/2015,no data,Summerland Key,FL, Resident,Lower Keys Resident,24.45350,-81.76633,no data,Cayman Wreck,no data,other/don't know,no data,no data,no data,no data,no data,YES,paling,none,none,paling,none,none,none,1-10%,no data,no data,no data,no data,no data,
In Person,Cory Walter,8/11/2015,no data,Summerland Key,FL,Research,Mote Marine Laboratory,24.52292,-81.51683,no data,American Shoal,no data,Bank Reef,no data,no data,no data,no data,no data,YES,paling,no data,no data,no data,no data,no data,no data,1-10%,no data,no data,no data,no data,no data,
Email,David Bosch,8/12/2015,no data,Marathon,FL, Resident,Captain Hooks Dive Center,24.62698,-81.09536,no data, Sombrero Reef SPA,no data,Bank Reef,no data,87,87,87,no data,YES,paling,paling,paling,no data,no data,no data,no data,1-10%,no data,no data,no data,no data,no data,
In Person, Cory Walter,8/12/2015,no data,Summerland Key,FL, Research,Mote Marine Laboratory,24.54341,-81.41194,48, Looe Deep Reef,no data,other/don't know,no data,no data,no data,no data,no data,YES,paling,paling,partial bleaching,paling,paling,paling,paling,11-30%,no data,no data,fire coral,no data,no data,
Email, Jessica Dockery,8/13/2015,13:00,Key Largo,FL,Education,Marine Resources,25.11167,-80.30917,10, Grecian Rocks, G2,Bank Reef, 5-10 kts,no data,86,86,partly cloudy,YES,paling,partial bleaching,paling,none,none,none,none,1-10%,10,4,palythoa,no data,no data,We outplanted more Acropora. I hope they survive!
Email, Mark Chiappone,8/14/2015,12:00,Miami,FL, Research, NSU-OC,25.36793,-80.16968,24, Biscayne National Park,Offshore of Caesar Creek,Patch Reef, 10-15 kts,83.1,84,84,no data,YES,paling,partial bleaching,paling,paling,partial bleaching,none,paling,no data,23,12,fire coral,no data,no data,"Mid-channel patch reef surveyed off of the Caesar Creek marker, southern Biscayne N.P., from 0942-1225 hours on 14AUG2015. The patch reef mound was mostly dominated by octocorals, with scattered remnants of Porites finger corals. Within two belt transects totaling 30 sq. meters, 18 stony coral taxa were observed, of which 14 taxa showed signs of colony paling or partial bleaching (white). Seven of 22 octocoral taxa had at least one instance of paling."
Email, Mark Chiappone,8/14/2015,13:13,Miami,FL, Research, NSU-OC,25.36743,-80.15213,34, Biscayne National Park,Pacific Reef Light,Patch Reef, 5-10 kts,81.9,84,84,mostly cloudy,YES,paling,none,paling,partial bleaching,partial bleaching,partial bleaching,paling,11-30%,34,27,fire coral,no data,no data,"Offshore patch reef mound west of Pacific Reef Light, southern Biscayne N.P., from 1313-1515 hrs. EST on 14AUG2015. The patch reef mound was mostly dominated by head corals and octocorals. Within two belt transects totaling 30 sq. meters in area, 21 stony coral taxa were observed, of which 12 taxa showed signs of colony paling or partial bleaching (white). Of the 16 octocoral taxa observed, two species exhibited signs of paling."
Email, Mark Chiappone,8/14/2015,15:40,Miami,FL, Research, NSU-OC,25.37257,-80.13728,41, Biscayne National Park,Pacific Reef Light,Deep Reef, 5-10 kts,84,84,84,partly cloudy,YES,paling,paling,none,partial bleaching,paling,none,none,1-10%,40,36,gorgonians,no data,no data,"Low-relief spur and groove surveyed just offshore of the Pacific Reef marker, southern Biscayne N.P., from 1542-1701 hrs. EST on 14AUG2015. The site was characterized by low-profile (< 1 m) coralline spurs dominated by turf algae and silt, with very low (< 2%) coral cover. Within two belt transects totaling 30 sq. meters, 12 stony coral taxa were observed, of which 8 taxa had at least one colony exhibiting signs of paling and one taxa exhibited signs of partial bleaching. Of the 17 octocoral taxa, only one (Plexaurella dichotoma) exhibited signs of paling."
Email, Mark Chiappone,8/15/2015,9:27,Miami,FL, Research, NSU-OC,25.45530,-80.14338,16, Biscayne National Park,Northwest of long reef,Patch Reef, 5-10 kts,82.4,84,84,mostly cloudy,YES,paling,paling,none,paling, Bleaching,none,none,11-30%,16,11,fire coral,no data,no data,"Mid-channel patch reef northwest of Long Reef, Biscayne N.P., from 0927-1117 hours on 15AUG2015. The patch reef was mostly dominated by octocorals and sponges, with a few scattered coral heads. Within two belt transects totaling 30 sq. meters, 14 stony coral taxa were observed, of which 7 taxa had at least one colony exhibiting signs of paling, 2 taxa had at least one colony exhibiting signs of partial bleaching, and 2 taxa had at least one colony showing signs of complete colony bleaching.  Only one (Erythropodium) of the 17 octocoral taxa exhibiting signs of paling."
Email, Mark Chiappone,8/15/2015,11:57,Miami,FL, Research, NSU-OC,25.46138,-80.11820,29, Biscayne National Park,Northwest of long reef,Hardbottom , 5-10 kts,83.8,84,84,cloudy,YES,paling,paling,none,paling,partial bleaching,none,none,1-10%,29,28,no data,no data,no data,"Low-relief hard-bottom surveyed northwest of Long Reef, Biscayne N.P., from 1157-1255 hrs. EST on 15AUG2015. The habitat was characterized by low profile (< 50 cm) patches of hard-bottom interspersed with sand and dominant by turf algae, sediment, cyanobacterial mats, and octocorals. Within two belt transects totaling 30 sq. meters, only 6 stony coral taxa were observed, of which three taxa had at least one colony exhibiting paling and one taxa had at least one colony exhibiting partial bleaching. None of the 12 octocoral taxa exhibited any signs of bleaching."
Email, Mark Chiappone,8/15/2015,13:42,Miami,FL, Research, NSU-OC,25.46658,-80.11098,50, Biscayne National Park,North of Long Reef,Deep Reef, 0-5 kts,81.1,84,84,partly cloudy,YES,partial bleaching, Bleaching,none,paling, Bleaching,none,none,1-10%,50,40,fire coral,no data,no data,"Low-relief spur and spur fore-reef habitat surveyed north of Long Reef, Biscayne N.P., from 1342-1517 hrs. EST on 15AUG2015. The site had strong current and ended at ~17 m depth in sand, dominated by algae, octocorals, and Xestospongia sponges. Within two belt transects totaling 30 sq. meters, 14 stony coral taxa were observed, of which 5 taxa had at least one colony exhibiting paling, 3 taxa had at least one colony exhibiting partial bleaching, and 2 taxa had at least one colony with total bleaching. In addition, there were several Meandrina, Dichocoenia, and Montastraea cavernosa colonies with either active white plague or recent death, presumably due to white plague. Except for Erythropodium, some of which was paling, none of the remaining 16 octocoral taxa exhibiting paling or bleaching."
Email, Mark Chiappone,8/15/2015,16:19,Miami,FL, Research, NSU-OC,25.43697,-80.12062,31, Biscayne National Park,Long Reef,Bank Reef, 5-10 kts,87.8,84,84,mostly cloudy,YES,paling,partial bleaching,paling,partial bleaching,partial bleaching,paling,none,11-30%,31,22,fire coral,no data,no data,"High-relief spur and groove habitat surveyed on the fore reef of Long Reef, Biscayne N.P., from 1619-1806 hrs. EST on 15AUG2015. The site had moderate to high-relief spurs dominated by fine turf and Dictyota algae. Within two belt transects totaling 30 sq. meters, 15 stony coral taxa were observed, of which 5 taxa had at least one colony exhibiting paling, 4 taxa had at least one colony exhibiting partial bleaching, and 1 taxa had at least one colony with total bleaching. In addition, there were several Meandrina colonies with either active white plague or recent death, presumably due to white plague. Except for Erythropodium, some of which was paling, none of the remaining 17 octocoral taxa exhibiting paling or bleaching."
Email, Mark Chiappone,8/16/2015,9:40,Miami,FL, Research, NSU-OC,25.62397,-80.09942,27, Biscayne National Park,North of Fowey Rocks,Patch Reef, 15-20 kts,84.6,85,85,partly cloudy,YES,paling,none,none,paling,none,none,none,1-10%,27,26,no data,no data,no data,"Offshore patch reef sampled north of Fowey Rocks, Biscayne N.P., from 0939-1058 hrs. EST on 16AUG2015. The site was characterized by low relief and dominance by octocorals and sponges, with relatively few and small stony corals. Within two belt transects totaling 30 sq. meters, 9 stony coral taxa were observed, of which 3 taxa had at least one colony exhibiting paling and 1 taxa had at least one colony exhibiting partial. None of the 20 octocoral taxa encountered were pale, partially bleached, or bleached."
Email, Mark Chiappone,8/16/2015,11:53,Miami,FL, Research, NSU-OC,25.59047,-80.09868,15, Biscayne National Park,Fowey Rocks,other/don't know, 15-20 kts,85.2,85,85,partly cloudy,YES,paling,paling,none,none,none,none,none,1-10%,15,14,no data,no data,no data,"Back-reef rubble habitat at Fowey Rocks Lighthouse, northern Biscayne N.P., from 1153-1242 hrs. EST on 16AUG2015. The site was characterized by unconsolidated rubble dominated by macroalgae, with a few small (< 6 cm) colonies of Porites and Siderastrea. Within two belt transects totaling 30 sq. meters, only 5 stony coral taxa were observed, of which only S. radians exhibited paling. None of the 6 octocoral taxa observed exhibited signs of paling, partial bleaching, or bleaching."
Email, Mark Chiappone,8/16/2015,13:31,Miami,FL, Research, NSU-OC,25.57537,-80.09935,29, Biscayne National Park,Brewsters Reef,Bank Reef, 10-15 kts,86,85,85,partly cloudy,YES,partial bleaching, Bleaching,none,partial bleaching,partial bleaching,none,none,11-30%,29,21,fire coral,no data,no data,"High-relief spur and groove habitat surveyed at Brewster Reef, south of Fowey Rocks Lighthouse, Biscayne N.P., from 1331-1534 hrs. EST on 16AUG2015. The site was characterized by very high profile (2-3 m) coralline spurs dominated mostly by algae and octocorals. Within two belt transects totaling 30 sq. meters, 13 stony coral taxa were observed, of which 4 taxa had at least one colony exhibiting paling, 3 taxa had at least one colony exhibiting partial bleaching, and 1 taxon had at least one colony with total bleaching. In addition, there were several colonies of Meandrina and Dichocoenia with either what appeared to be active white plague disease or were completely dead."
Email, Mark Chiappone,8/16/2015,16:26,Miami,FL, Research, NSU-OC,25.53630,-80.10377,15, Biscayne National Park,Star Reef,Hardbottom , 10-15 kts,87.8,85,85,partly cloudy,YES,paling,partial bleaching,paling,paling,partial bleaching,none,none,1-10%,15,11,fire coral,no data,no data,"Shallow low-relief hard-bottom habitat surveyed at Star Reef, Biscayne N.P., from 1626-1734 hrs. EST on 16AUG2015. The site is a wave-swept platform dominated by octocorals, especially sea fans, branching fire corals, and turf algae. Within two belt transects totaling 30 sq. meters, 9 stony coral taxa were observed, of which 2 taxa had at least one colony exhibiting paling and 4 taxa had at least one colony exhibiting partial bleaching. Colonies of Acropora cervicornis and Diploria strigosa were observed with either active white plague or recent death, presumably due to white plague."
Email, John Yundt-Pacheco,8/16/2015,no data,Key Largo,FL,Visitor, EcoKeys; Amoray,25.13744,-80.28916,no data, Key Largo Dry Rocks,buoy 6,Bank Reef, 10-15 kts,88,87,86,partly cloudy,YES,paling,paling,none,none,none,none,paling,1-10%,25,15,fire coral,no data,no data,Little bleaching except some paling/bleaching on fire coral
Email, John Yundt-Pacheco,8/16/2015,no data,Key Largo,FL,Visitor, EcoKeys; Amoray,25.13394,-80.29097,no data, Key Largo Dry Rocks,buoy 13,Bank Reef, 10-15 kts,88,87,86,partly cloudy,YES,paling,paling,none,paling,none,none,paling,1-10%,22,15,palythoa,fire coral,no data,some pale/bleaching on fire coral
Email, Mayra Yundt-Pacheco,8/16/2015,no data,Key Largo,FL,Visitor, EcoKeys; Amoray,25.13213,-80.29228,22, Key Largo Dry Rocks,buoy 13,Bank Reef, 10-15 kts,88,87,86,partly cloudy,YES,paling,paling,none,paling,none,none,paling,1-10%,22,15,fire coral,no data,no data,
Email, Mayra Yundt-Pacheco,8/16/2015,no data,Key Largo,FL,Visitor, EcoKeys; Amoray,25.12303,-80.29778,no data, Key Largo Dry Rocks,buoy 6,Bank Reef, 10-15 kts,88,87,86,partly cloudy,YES,paling,paling,none,none,none,none,paling,no data,25,15,fire coral,no data,no data,A lot of damsels
Email, Carlo Yundt-Pacheco,8/16/2015,no data,Key Largo,FL,Visitor, EcoKeys; Amoray,25.11929,-80.30017,21, Key Largo Dry Rocks,buoy 13,Bank Reef, 10-15 kts,88,87,86,partly cloudy,YES,paling,paling,none,paling,none,none,paling,1-10%,no data,no data,fire coral,no data,no data,
Email, Mark Chiappone,8/17/2015,10:08,Miami,FL, Research, NSU-OC,25.58627,-80.09433,33, Biscayne National Park,Fowey Rocks,Bank Reef, 5-10 kts,84.9,87.3,85,partly cloudy,YES,paling,paling,none,paling,partial bleaching,none,none,1-10%,33,29,no data,no data,no data,"Low-relief spur and spur fore-reef habitat surveyed southeast of Fowey Rocks Lighthouse, Biscayne N.P., from 1008-1111 hrs. EST on 17AUG2015. The site was dominated by mostly turf algae and sea plumes. Within two belt transects totaling 30 sq. meters, 9 stony coral taxa were observed, of which 5 taxa had at least one colony exhibiting paling and 2 taxa had at least one colony exhibiting partial bleaching."
Email, Mark Chiappone,8/17/2015,11:42,Miami,FL, Research, NSU-OC,25.58030,-80.09645,30, Biscayne National Park,South of Fowey Rocks,Patch Reef, 10-15 kts,85.3,87.1,85,partly cloudy,YES,paling,none,none,paling,partial bleaching,none,none,1-10%,30,28,palythoa,gorgonians,no data,"Low-relief spur and spur fore-reef habitat surveyed south of Fowey Rocks, Biscayne N.P., from 1142-1305 hrs. EST on 17AUG2015. The site had low to moderate relief, with the reef surface dominated by algae and octocorals. Within two belt transects totaling 30 sq. meters, 10 stony coral taxa were observed, of which 4 taxa had at least one colony exhibiting paling, 2 taxa had at least one colony exhibiting partial bleaching, and 1 taxon (S. radians) had at least one colony with total bleaching. Partial bleaching of Erythropodium and Palythoa were also observed."
Email, Mark Chiappone,8/17/2015,14:02,Miami,FL, Research, NSU-OC,25.57115,-80.10498,18, Biscayne National Park,Brewsters Reef,Bank Reef, 10-15 kts,85.6,87,85,partly cloudy,YES,paling,paling,none,paling,partial bleaching,none,none,1-10%,18,14,palythoa,no data,no data,"High-relief spur and groove habitat surveyed at Brewster Reef, south of Fowey Rocks, in northern Biscayne N.P., from 1402-1545 hrs. EST on 17AUG2015. The had high-relief coralline spurs (3 m) dominated by algae, Palythoa, and octocorals. Within two belt transects totaling 30 sq. meters, 9 stony coral taxa were observed, of which 5 taxa had at least one colony exhibiting paling, 1 taxon had at least one colony exhibiting partial bleaching, and 1 taxon had at least one colony with total bleaching."
Email, Mark Chiappone,8/17/2015,16:34,Miami,FL, Research, NSU-OC,25.48667,-80.11375,14, Biscayne National Park,Triumph Reef,other/don't know, 5-10 kts,85.8,87.7,87.7,partly cloudy,YES,paling,paling,none,paling,none,none,none,1-10%,14,13,palythoa,no data,no data,"Back-reef rubble habitat surveyed at Triumph Reef, Biscayne N.P., from 1634-1726  hrs. EST on 17AUG2015. The site was dominated by brown and green macroalgae, with a scattering of small Porites astreoides and P. porites colonies. Within two belt transects totaling 30 sq. meters, only 3 stony coral taxa were observed, of which 2 taxa (Porites astreoides and P. porites) had at least one colony exhibiting paling."
Email, Bill Ferrell,8/18/2015,no data,Long Key,FL, Research, Keys Marine Lab,24.70023,-80.96400,20, MK 47,no data,Patch Reef, 5-10 kts,88,86,86,no data,YES,partial bleaching,partial bleaching,paling,partial bleaching,partial bleaching,paling,none,11-30%,20,10,fire coral,no data,no data,close to 50% of fire coral bleached.  20 to 40% porites porites  pale or bleached
Email,Bill Sharp,8/18/2015,no data,Marathon,FL,Research,Florida Fish and Wildlife (FWC),24.75182,-81.26855,no data,Sandfly Key,no data,other/don't know,no data,no data,no data,no data,no data,YES,partial bleaching,no data,no data,Bleaching,no data,no data,no data,51-75%,no data,no data,no data,no data,no data,
Email, Mark Chiappone,8/18/2015,9:10,Miami,FL, Research, NSU-OC,25.39558,-80.12985,52, Biscayne National Park,South of Ajax Reef,Deep Reef, 5-10 kts,82.9,87.5,85,partly cloudy,YES,partial bleaching,partial bleaching,none,partial bleaching,partial bleaching,none,none,11-30%,52,43,fire coral,no data,no data,"Low-relief spur and groove habitat sampled along the deeper fore reef south of Ajax Reef, Biscayne National Park, from 0910-1035 hrs. EST on 18AUG2015. The site was characterized by low-profile coralline spurs (< 1 m) dominated by algae, sea plumes, and scattered Xestospongia sponges. Two belt transects totaling 30 sq. m in area yielded 19 stony coral taxa, of which 7 taxa had at least 1 colony that was pale and 8 taxa had at least 1 colony that was partially bleached (white)."
Email, Mark Chiappone,8/19/2015,9:42,Miami,FL, Research, NSU-OC,25.29780,-80.16480,41, Biscayne National Park,Whistle Buoy,Hardbottom , 10-15 kts,84.7,87.4,85,no data,YES,paling, Bleaching,paling,paling,none,none,none,1-10%,41,40,no data,no data,no data,"Low-relief hard-bottom habitat sampled just north of the Whistle Buoy, southeastern Biscayne National Park, from 0942-1051 hrs. EST on 19AUG2015. The site was characterized by low-profile hard-bottom dominated by algae, octocorals, and sponges. Two belt transects totaling 30 sq. m in area yielded 9 stony coral taxa, of which 3 taxa had at least 1 colony that was pale, 1 taxon had at least 1 colony that was partially bleached (white), and 2 taxa had at least 1 colony that was completely bleached. Active white plague and/or evidence of recent disease-related mortality was observed on colonies of Meandrina, Dichocoenia, and Diploria."
Email, Mark Chiappone,8/19/2015,11:31,Miami,FL, Research, NSU-OC,25.32713,-80.16243,36, Biscayne National Park,SW of Pacific Reef,Patch Reef, 10-15 kts,84.3,87.2,85,partly cloudy,YES,paling,partial bleaching,none,paling,none,none,none,1-10%,36,32,no data,no data,no data,"Offshore patch reef sampled southwest of Pacific Reef, southern Biscayne National Park, from 1131-1303 hrs. EST on 19AUG2015. The site was characterized as an offshore patch reef mound dominated mostly by algae, octocorals, and sponges. Two belt transects totaling 30 sq. m in area yielded 8 stony coral taxa, of which 1 taxon (M. cavernosa) had at least 1 colony that was pale, 1 taxon (P. porites) had at least 1 colony that was partially bleached (white), and 1 taxon (S. radians) had at least 1 colony that was completely bleached. Active white plague and/or evidence of recent disease-related mortality was observed on colonies of Meandrina and Dichocoenia."
Email, Mark Chiappone,8/19/2015,14:31,Miami,FL, Research, NSU-OC,25.32230,-80.18237,13, Biscayne National Park,NE of Turtle Rocks,Hardbottom , 10-15 kts,84.7,87.2,85,partly cloudy,YES,paling,paling,none,paling,partial bleaching,none,none,1-10%,13,8,fire coral,no data,no data,"Shallow low-relief hard-bottom habitat sampled northeast of the Turtle Rocks area, southern Biscayne National Park, from 1413-1550 hrs. EST on 19AUG2015. The site was characterized by wave-swept low-profile hard-bottom dominated by turf algae and octocorals, with scattered and mostly small hard corals. Two belt transects totaling 30 sq. m in area yielded 7 stony coral taxa, of which 3 taxa had at least 1 colony that was pale and 2 taxa had at least 1 colony that was partially bleached (partially white). Relatively healthy colonies of Acropora cervicornis were observed, along with one small patch of elkhorn coral. Active white plague and/or evidence of recent disease-related mortality was observed on colonies of Montastraea cavernosa."
Email, Mark Chiappone,8/19/2015,9:13,Miami,FL, Research, NSU-OC,25.35708,-80.14095,49, Biscayne National Park,South of Pacific Reef,Deep Reef, 5-10 kts,85,87.6,85,partly cloudy,YES,partial bleaching,paling,none,Bleaching, Bleaching,none,paling,11-30%,48,44,fire coral,no data,no data,"Low-relief spur and groove habitat on the fore reef slope sample south of Pacific Reef, Biscayne National Park, from 0913-1035 hrs. EST on 20AUG2015. The site was characterized by low-profile coralline spurs dominated by turf algae, brown algae, octocorals, and sponges. Two belt transects totaling 30 sq. m in area yielded 13 stony coral taxa, of which 5 taxa had at least 1 colony that was pale, 2 taxa had at least 1 colony that was partially bleached (white), and 2 taxa had at least 1 colony that was completely bleached."
Email,Alex Bylesky,8/20/2015,no data,Key West,FL,Education,Florida Keys Community College ,24.48202,-81.70658,no data,Western Sambos,no data,Bank Reef,no data,no data,no data,no data,no data,YES,paling,Bleaching,none,none,no data,no data,no data,76-100%,no data,no data,fire coral,palythoa,no data,
Email,Morgan Collins,8/20/2015,11:00,Big Pine Key,FL,Education,Order of the Arrow,24.54593,-81.40565,no data,Looe Key SPA,buoy 14,Bank Reef,no data,no data,no data,no data,partly cloudy,YES,paling,paling,none,none,paling,none,none,1-10%,15,7,no data,no data,no data,
Email,Jessica Levy,8/20/2015,no data,Key Largo,FL,Education,Coral Restoration Foundation,24.86238,-80.62347,no data, Alligator Reef SPA,no data,Bank Reef,no data,no data,no data,no data,no data,YES,paling,no data,no data,no data,no data,no data,no data,no data,no data,no data,no data,no data,no data,
Email, Mark Chiappone,8/20/2015,11:11,Miami,FL, Research, NSU-OC,25.40323,-80.12950,30, Biscayne National Park,Ajax Reef,Patch Reef, 5-10 kts,85.6,85,87.4,partly cloudy,YES,paling, Bleaching,paling,paling, Bleaching,none,paling,1-10%,30,25,fire coral,gorgonians,no data,"High-relief spur and groove habitat (6-12 m depth) sampled at Ajax Reef, Biscayne National Park, from 1111-1222 hrs. EST on 20AUG2015. The site was characterized by moderate relief coralline spurs dominated by algae and sea plumes. Two belt transects totaling 30 sq. m in area yielded 16 stony coral taxa, of which 5 taxa had at least 1 colony that was pale, 2 taxa had at least 1 colony that was partially bleached (partially white), and 3 taxa had at least 1 colony that was completely bleached (totally white). The encrusting octocoral Erythropodium caribaeorum exhibited paling, while the branching fire coral (Millepora alcicornis) exhibited partial bleaching."
Email, Mark Chiappone,8/20/2015,13:28,Miami,FL, Research, NSU-OC,25.35720,-80.15195,35, Biscayne National Park,SW of Pacific Reef,Hardbottom , 5-10 kts,85.6,87.5,87.5,partly cloudy,YES,partial bleaching,paling,none,partial bleaching, Bleaching,none,paling,31-50%,34,29,fire coral,no data,no data,"Low-relief hard-bottom habitat sampled southwest of Pacific Reef, Biscayne National Park, from 1328-1448 hrs. EST on 20AUG2015. The site was characterized by low-profile hard-bottom dominated by algae, octocorals, and sponges. Two belt transects totaling 30 sq. m in area yielded 14 stony coral taxa, of which 4 taxa had at least 1 colony that was pale, 3 taxa had at least 1 colony that was partially bleached (white), and 3 taxa had at least 1 colony that was completely bleached."
Email, Kara Claycomb,8/20/2015,no data,Key West,FL,Research,Dry Tortugas NPS,24.68226,-82.88960,51, Dry Tortugas National Park,no data,Hardbottom , 5-10 kts,86,85,84,no data,YES,partial bleaching,partial bleaching,paling,partial bleaching,paling,none,none,1-10%,41,35,fire coral,no data,no data,
Email, Ashley Siana,8/20/2015,no data,Key West,FL,Research,Dry Tortugas NPS,24.62986,-82.87120,17, Dry Tortugas National Park,no data,other/don't know, 0-5 kts,90,85,85,no data,YES,partial bleaching,unknown,partial bleaching,none,none,none,none,1-10%,8,4,fire coral,no data,no data,
Email, Ashley Siana,8/20/2015,no data,Key West,FL,Research,Dry Tortugas NPS,24.62617,-82.87296,no data, Dry Tortugas National Park,no data,other/don't know,no data,90,85,85,no data,YES,partial bleaching,partial bleaching,partial bleaching,Bleaching,none,none,none,1-10%,12,9,fire coral,no data,no data,
Email,Jessica Levy,8/21/2015,no data,Key Largo,FL,Education,Coral Restoration Foundation,24.91850,-80.50583,no data,Davis Rocks,no data,other/don't know,no data,no data,no data,no data,no data,YES,paling,no data,no data,no data,no data,no data,no data,no data,no data,no data,no data,no data,no data,
Email,Captain Bill Wickers,8/22/2015,no data,Key West,FL,Dive Industry,Key West Charter Boat,24.52063,-81.97252,no data,Woman Key,no data,Hardbottom ,no data,no data,no data,no data,no data,YES,paling,no data,no data,no data,no data,no data,no data,31-50%,20,10,gorgonians,no data,no data,
Email,Captain Bill Wickers,8/22/2015,no data,Key West,FL,Dive Industry,Key West Charter Boat,24.60839,-81.92456,no data,Cottrell Key,no data,Hardbottom ,no data,no data,no data,no data,no data,YES,paling,no data,no data,no data,no data,no data,no data,31-50%,20,10,gorgonians,no data,no data,
Email,Captain Bill Wickers,8/22/2015,no data,Key West,FL,Dive Industry,Key West Charter Boat,24.57523,-81.92156,no data,Mullet Key,no data,Hardbottom ,no data,no data,no data,no data,no data,YES,paling,no data,no data,no data,no data,no data,no data,31-50%,20,10,gorgonians,no data,no data,
Email,Captain Bill Wickers,8/22/2015,no data,Key West,FL,Dive Industry,Key West Charter Boat,24.60317,-81.87265,no data,NW Channel,no data,Hardbottom ,no data,no data,no data,no data,no data,YES,paling,no data,no data,no data,no data,no data,no data,31-50%,20,10,gorgonians,no data,no data,
Email, Bill Ferrell,8/23/2015,no data,Long Key,FL,Research, Keys Marine Lab,24.65678,-81.00973,26, Tropical Rocks,no data,Patch Reef, 0-5 kts,90,88,88,clear,YES,upper surface,partial bleaching,paling,paling,partial bleaching,partial bleaching,paling,11-30%,26,15,fire coral,no data,no data,This site has a small Acropora Palmata which was white on the tops with pale undersides and base. There is also Acropora cervicornis that has been out planted that showed some paling and bleaching.
Email, Gabrielle Renchen,8/24/2015,9:00,Marathon,FL, Research,Florida Fish and Wildlife (FWC),24.61541,-81.39309,8, Newfound Harbor SPA, Patch on west side of SPA,Patch Reef,no data,no data,no data,no data,partly cloudy,YES,partial bleaching,none,paling,none,none,none,none,11-30%,8,2,fire coral,no data,no data,"Multiple colonies of Diploria clivosa paling. Multiple colonies of Millepora alcicornis that were partially bleached, and very close to being completely bleached."
Email,Lonny Anderson,8/25/2015,no data,Key West,FL,Research,Florida Keys National Marine Sanctuary,24.44424,-81.96141,no data,FRRP 1280,no data,Patch Reef,no data,no data,no data,no data,no data,YES,paling,no data,no data,no data,no data,no data,no data,76-100%,no data,no data,no data,no data,no data,
Email,Lonny Anderson,8/25/2015,no data,Key West,FL,Research,Florida Keys National Marine Sanctuary,24.44437,-81.94069,no data,FRRP 1285,no data,Patch Reef,no data,no data,no data,no data,no data,YES,paling,no data,no data,no data,no data,no data,no data,76-100%,no data,no data,no data,no data,no data,
Email,Lonny Anderson,8/25/2015,no data,Key West,FL,Research,Florida Keys National Marine Sanctuary,24.44895,-81.93086,no data,FRRP 2233,no data,Patch Reef,no data,no data,no data,no data,no data,YES,paling,no data,no data,no data,no data,no data,no data,76-100%,no data,no data,no data,no data,no data,
Email,Lonny Anderson,8/25/2015,no data,Key West,FL,Research,Florida Keys National Marine Sanctuary,24.44614,-81.96933,no data,FRRP Strat #1,no data,Patch Reef,no data,no data,no data,no data,no data,YES,paling,no data,no data,no data,no data,no data,no data,76-100%,no data,no data,no data,no data,no data,
In Person,Cory Walter,8/25/2015,no data,Summerland Key,FL, Research,Mote Marine Laboratory,24.59249,-81.22116,41,FRRP 1247,no data,other/don't know,no data,no data,84,86,no data,YES,partial bleaching,partial bleaching,partial bleaching,partial bleaching,partial bleaching,none,partial bleaching,76-100%,no data,no data,fire coral,gorgonians,no data,
In Person,Cory Walter,8/25/2015,no data,Summerland Key,FL, Research,Mote Marine Laboratory,24.59162,-81.23261,31,FRRP 1242,no data,other/don't know,no data,no data,84,86,no data,YES,partial bleaching,partial bleaching,partial bleaching,partial bleaching,partial bleaching,none,partial bleaching,76-100%,no data,no data,fire coral,gorgonians,no data,
In Person,Cory Walter,8/25/2015,no data,Summerland Key,FL, Research,Mote Marine Laboratory,24.58078,-81.27299,31,FRRP 1246,no data,other/don't know,no data,no data,84,86,no data,YES,partial bleaching,partial bleaching,partial bleaching,partial bleaching,partial bleaching,none,partial bleaching,76-100%,no data,no data,fire coral,gorgonians,no data,
In Person,Cory Walter,8/25/2015,no data,Summerland Key,FL, Research,Mote Marine Laboratory,24.58601,-81.25211,31,FRRP 2195,no data,other/don't know,no data,no data,84,86,no data,YES,partial bleaching,partial bleaching,partial bleaching,partial bleaching,partial bleaching,none,partial bleaching,76-100%,no data,no data,fire coral,gorgonians,no data,
In Person,Cory Walter,8/25/2015,no data,Summerland Key,FL, Research,Mote Marine Laboratory,24.59728,-81.26468,25,FRRP Strat #1,no data,other/don't know,no data,no data,84,86,no data,YES,partial bleaching,partial bleaching,partial bleaching,partial bleaching,partial bleaching,none,partial bleaching,76-100%,no data,no data,fire coral,gorgonians,no data,
Email, Bill Ferrell,8/25/2015,no data,Long Key,FL,Research, Keys Marine Lab,24.72487,-80.91892,28, E turtle shoals,no data,Patch Reef, 0-5 kts,89,89,89,partly cloudy,YES,partial bleaching,paling,Bleaching,partial bleaching, Bleaching,partial bleaching,partial bleaching,31-50%,28,12,fire coral,no data,no data,There were thick bands of black band disease on brain and star corals
In Person,Cory Walter,8/27/2015,no data,Summerland Key,FL,Research,Mote Marine Laboratory,24.62148,-81.36317,no data,Inshore Coral Culture,no data,Patch Reef,no data,no data,no data,no data,no data,YES,partial bleaching,Bleaching,paling,partial bleaching, Bleaching,none,none,11-30%,no data,no data,fire coral,no data,no data,
In Person,Cory Walter,9/1/2015,9:30,Summerland Key,FL,Research,Mote Marine Laboratory,24.52129,-81.51588,38,FRRP 2225,no data,other/don't know,no data,no data,no data,85,no data,YES,partial bleaching,none,none,partial bleaching, Bleaching,none,none,76-100%,no data,no data,fire coral,no data,no data,
In Person,Cory Walter,9/1/2015,9:55,Summerland Key,FL,Research,Mote Marine Laboratory,24.51951,-81.53258,33,FRRP 1289,no data,other/don't know,no data,no data,no data,86,no data,YES,partial bleaching,Bleaching,none,partial bleaching,none,none,none,51-75%,no data,no data,fire coral,no data,no data,
In Person,Cory Walter,9/1/2015,10:40,Summerland Key,FL,Research,Mote Marine Laboratory,24.52619,-81.50423,18,FRRP 2226,no data,other/don't know,no data,no data,no data,85,no data,YES,paling,Bleaching,paling,partial bleaching, Bleaching,none,none,51-75%,no data,no data,fire coral,no data,no data,
In Person,Cory Walter,9/1/2015,11:20,Summerland Key,FL,Research,Mote Marine Laboratory,24.52426,-81.52236,16,FRRP 2221,no data,other/don't know,no data,no data,no data,85,no data,YES,paling,none,none,paling,none,none,none,31-50%,no data,no data,fire coral,gorgonians,no data,
In Person,Cory Walter,9/1/2015,11:50,Summerland Key,FL,Research,Mote Marine Laboratory,24.51667,-81.55456,24,FRRP 1264,no data,other/don't know,no data,no data,no data,86,no data,YES,paling,Bleaching,none,paling,none,none,none,11-30%,no data,no data,fire coral,gorgonians,no data,
In Person,Cory Walter,9/1/2015,12:15,Summerland Key,FL,Research,Mote Marine Laboratory,24.51398,-81.56316,23,FRRP 2236,no data,other/don't know,no data,no data,no data,86,no data,YES,partial bleaching,Bleaching,paling,partial bleaching,none,none,none,31-50%,no data,no data,fire coral,no data,no data,
In Person,Cory Walter,9/1/2015,12:50,Summerland Key,FL,Research,Mote Marine Laboratory,24.55001,-81.52374,27,FRRP 2212,no data,other/don't know,no data,no data,no data,86,no data,YES,paling,paling,none,paling,paling,none,Bleaching ,11-30%,no data,no data,fire coral,no data,no data,
In Person,Cory Walter,9/1/2015,13:42,Summerland Key,FL,Research,Mote Marine Laboratory,24.55943,-81.47942,31,FRRP 1259,no data,other/don't know,no data,no data,no data,86,no data,YES,paling,paling,paling,partial bleaching,none,none,paling,31-50%,no data,no data,fire coral,no data,no data,
Email,Vanessa Brinkhuis,9/1/2015,no data,Marathon,FL,Research,Florida Fish and Wildlife (FWC),24.68950,-81.03020,no data,Dustan Rocks,no data,other/don't know,no data,no data,no data,no data,no data,YES,partial bleaching,no data,no data,no data,no data,no data,no data,no data,no data,no data,no data,no data,no data,
Email,Vanessa Brinkhuis,9/1/2015,no data,Marathon,FL,Research,Florida Fish and Wildlife (FWC),24.71754,-80.93495,no data,West Turtle Shoal,no data,other/don't know,no data,no data,no data,no data,no data,YES,partial bleaching,no data,no data,no data,no data,no data,no data,no data,no data,no data,no data,no data,no data,
In Person,Cory Walter,9/2/2015,9:30,Summerland Key,FL,Research,Mote Marine Laboratory,24.54248,-81.40728,75,FRRP 2227,no data,other/don't know,no data,no data,no data,84,no data,YES,partial bleaching,no data,no data,no data,no data,no data,no data,31-50%,no data,no data,fire coral,no data,no data,
In Person,Cory Walter,9/2/2015,10:30,Summerland Key,FL,Research,Mote Marine Laboratory,24.54514,-81.42704,31,FRRP 2242,no data,other/don't know,no data,no data,no data,no data,no data,YES,partial bleaching,no data,no data,no data,no data,no data,no data,76-100%,no data,no data,fire coral,no data,no data,
In Person,Cory Walter,9/2/2015,11:10,Summerland Key,FL,Research,Mote Marine Laboratory,24.54973,-81.44273,24,FRRP 1278,no data,other/don't know,no data,no data,no data,86,no data,YES,partial bleaching,Bleaching,none,partial bleaching,partial bleaching,none,none,51-75%,no data,no data,fire coral,no data,no data,
In Person,Cory Walter,9/2/2015,11:40,Summerland Key,FL,Research,Mote Marine Laboratory,24.55231,-81.44385,19,FRRP 2231,no data,other/don't know,no data,no data,no data,86,no data,YES,paling,none,none,paling,none,none,none,31-50%,no data,no data,fire coral,no data,no data,
In Person,Cory Walter,9/2/2015,13:00,Summerland Key,FL,Research,Mote Marine Laboratory,24.55339,-81.38066,18,FRRP 1269,no data,other/don't know,no data,no data,no data,86,no data,YES,paling,paling,paling,paling,paling,none,none,11-30%,no data,no data,fire coral,no data,no data,
Email, Gabrielle Renchen,9/2/2015,12:00,Marathon,FL,Research,Florida Fish and Wildlife (FWC),24.62625,-81.10917,25, Sombrero Reef SPA, East side of spur and groove reef,other/don't know,no data,no data,no data,86,no data,YES,Bleaching, Bleaching,paling,paling,partial bleaching,none,none,11-30%,no data,no data,fire coral,no data,no data,"Paling: Dendrogyra cylindrus, Diploria clivosa, Montastraea cavernosa,
Siderastrea radians, Pseudodiploria strigosa, Madracis mirabilis,
Montastraea faveolata

Partial Bleaching: Agaricia agaricites, Millepora alcicornis

Bleaching: Porites porites, Millepora alcicornis"
In Person,Cory Walter,9/3/2015,10:00,Summerland Key,FL,Research,Mote Marine Laboratory,24.56581,-81.33437,25,FRRP 2232,no data,other/don't know,no data,no data,no data,85,no data,YES,Bleaching,Bleaching,none,Bleaching,none,none,none,76-100%,no data,no data,fire coral,no data,no data,
In Person,Cory Walter,9/3/2015,10:30,Summerland Key,FL,Research,Mote Marine Laboratory,24.56971,-81.33003,21,Strat #1,no data,other/don't know,no data,no data,no data,85,no data,YES,partial bleaching,Bleaching,paling,partial bleaching,partial bleaching,none,none,76-100%,no data,no data,fire coral,no data,no data,
In Person,Cory Walter,9/3/2015,11:00,Summerland Key,FL,Research,Mote Marine Laboratory,24.56869,-81.32655,19,Strat #2,no data,other/don't know,no data,no data,no data,85,no data,YES,paling,Bleaching,paling,partial bleaching,none,none,none,51-75%,no data,no data,fire coral,no data,no data,
In Person,Cory Walter,9/3/2015,11:45,Summerland Key,FL,Research,Mote Marine Laboratory,24.55704,-81.36685,22,FRRP 1283,no data,other/don't know,no data,no data,no data,85,no data,YES,partial bleaching,Bleaching,none,partial bleaching,none,none,none,31-50%,no data,no data,fire coral,no data,no data,
Email,Lonny Anderson,9/3/2015,no data,Key West,FL,Research,Florida Keys National Marine Sanctuary,24.46955,-81.80274,no data,FRRP 1287,no data,other/don't know,no data,no data,no data,no data,no data,YES,partial bleaching,no data,no data,no data,no data,no data,no data,76-100%,no data,no data,no data,no data,no data,
Email,Lonny Anderson,9/3/2015,no data,Key West,FL,Research,Florida Keys National Marine Sanctuary,24.47082,-81.72973,no data,FRRP 2241,no data,other/don't know,no data,no data,no data,no data,no data,YES,partial bleaching,no data,no data,no data,no data,no data,no data,76-100%,no data,no data,no data,no data,no data,
Email,Lonny Anderson,9/3/2015,no data,Key West,FL,Research,Florida Keys National Marine Sanctuary,24.48514,-81.75645,no data,FRRP 1276,no data,other/don't know,no data,no data,no data,no data,no data,YES,partial bleaching,no data,no data,no data,no data,no data,no data,76-100%,no data,no data,no data,no data,no data,
Email,Lonny Anderson,9/3/2015,no data,Key West,FL,Research,Florida Keys National Marine Sanctuary,24.50270,-81.73677,no data,Strat #1,no data,other/don't know,no data,no data,no data,no data,no data,YES,paling,no data,no data,no data,no data,no data,no data,76-100%,no data,no data,no data,no data,no data,
Email,Rob Ruzika,9/3/2015,no data,Marathon,FL,Research,Florida Fish and Wildlife (FWC),25.22162,-80.21110,no data,Carysfort ,no data,Bank Reef,no data,no data,no data,no data,no data,YES,paling,paling,paling,partial bleaching, Bleaching,paling,paling,no data,no data,no data,no data,no data,no data,
Email, Renee Carlton,9/3/2015,no data,Miami,FL, Research, NOAA/AOML,24.61162,-82.87015,45, Dry Tortugas National Park,no data,Bank Reef,no data,no data,no data,84,clear,YES,partial bleaching,paling,Bleaching,paling,partial bleaching,none,none,11-30%,no data,no data,fire coral,no data,no data,"Diploria labyrinthiformis was bleaching heavily, Siderastrea siderea were
partially bleached and showing signs of bleaching but not white, Diploria
strigosa were partially to mostly bleached. Some fire coral and gorgonians
were completely white."
Email, Renee Carlton,9/3/2015,no data,Miami,FL, Research, NOAA/AOML,24.67909,-83.03599,80,Sherwood Forrest,no data,Deep Reef,no data,no data,no data,no data,no data,YES,paling,no data,no data,no data,no data,no data,no data,1-10%,no data,no data,no data,no data,no data,
Email,Rob Ruzika,9/4/2015,no data,Marathon,FL,Research,Florida Fish and Wildlife (FWC),25.00901,-80.37570,no data,Molasses,no data,Bank Reef,no data,no data,no data,no data,no data,YES,paling,paling,paling,partial bleaching, Bleaching,paling,paling,no data,no data,no data,no data,no data,no data,
Email,Rob Ruzika,9/5/2015,no data,Marathon,FL,Research,Florida Fish and Wildlife (FWC),25.11167,-80.30917,no data,Grecian Rocks,no data,Patch Reef,no data,no data,no data,no data,no data,YES,paling,paling,paling,partial bleaching, Bleaching,paling,paling,no data,no data,no data,no data,no data,no data,
Email,Nancy Perez,9/7/2015,12:00,Key Largo,FL,Education,Reef Environmental Education Foundation,24.89393,-80.55392,no data,Near Snake Creek,no data,Patch Reef,no data,no data,no data,no data,no data,YES,partial bleaching,no data,Bleaching,no data,no data,no data,no data,51-75%,no data,no data,no data,no data,no data,
In Person,Cory Walter,9/8/2015,13:15,Summerland Key,FL,Research,Mote Marine Laboratory,24.49003,-81.67852,16,FRRP 1265,no data,other/don't know,no data,no data,no data,no data,no data,YES,paling,none,none,partial bleaching,none,none,none,76-100%,no data,no data,no data,no data,no data,
In Person,Cory Walter,9/8/2015,13:53,Summerland Key,FL,Research,Mote Marine Laboratory,24.50657,-81.68639,17,FRRP 2209,no data,other/don't know,no data,no data,no data,no data,no data,YES,paling,none,paling,partial bleaching,none,none,none,31-50%,no data,no data,no data,no data,no data,
Email, Kerry Maxwell,9/8/2015,no data,Marathon,FL, Research,Florida Fish and Wildlife (FWC),24.68653,-80.96175,14, Coffins Patch SPA,buoy 2,Bank Reef, 0-5 kts,no data,no data,no data,partly cloudy,YES,partial bleaching,partial bleaching,Bleaching,Bleaching, Bleaching,unknown,unknown,31-50%,14,13,fire coral,gorgonians,no data,
Email, Kerry Maxwell,9/8/2015,no data,Marathon,FL, Research,Florida Fish and Wildlife (FWC),24.62533,-81.10988,20, Sombrero Reef SPA,buoy 16,Bank Reef, 5-10 kts,no data,no data,no data,partly cloudy,YES,partial bleaching,partial bleaching,Bleaching,partial bleaching,none,unknown,unknown,31-50%,20,6,fire coral,no data,no data,depended on genet. some brain corals or Montastereas were completely
Email, Kerry Maxwell,9/8/2015,no data,Marathon,FL, Research,Florida Fish and Wildlife (FWC),24.62158,-81.12708,23, Stag Acres,no data,Bank Reef, 5-10 kts,no data,no data,no data,partly cloudy,YES,partial bleaching,partial bleaching,partial bleaching,partial bleaching, Bleaching,unknown,unknown,31-50%,23,18,fire coral,no data,no data,
In Person,Cory Walter,9/9/2015,9:11,Summerland Key,FL,Research,Mote Marine Laboratory,24.48826,-81.67061,36,FRRP 2224,no data,other/don't know,no data,no data,no data,86,no data,YES,paling,none,paling,paling, Bleaching,none,none,31-50%,no data,no data,no data,no data,no data,
In Person,Cory Walter,9/9/2015,10:54,Summerland Key,FL,Research,Mote Marine Laboratory,24.49306,-81.66008,13,Strat #1,no data,other/don't know,no data,no data,no data,86,no data,YES,paling,paling,none,partial bleaching, Bleaching,none,none,51-75%,no data,no data,no data,no data,no data,
In Person,Cory Walter,9/9/2015,11:00,Summerland Key,FL,Research,Mote Marine Laboratory,24.50906,-81.66554,18,Strat #2,no data,other/don't know,no data,no data,no data,86,no data,YES,paling,none,paling,paling,none,none,none,31-50%,no data,no data,no data,no data,no data,
In Person,Cory Walter,9/9/2015,12:00,Summerland Key,FL,Research,Mote Marine Laboratory,24.51593,-81.67480,23,Strat #3,no data,other/don't know,no data,no data,no data,87,no data,YES,paling,none,paling,paling,paling,none,Bleaching ,31-50%,no data,no data,no data,no data,no data,
Email, Lauren Toth,9/9/2015,no data,Marathon,FL, Research,United States Geological Survey,24.74520,-80.78157,30, Tennessee Reef , near light,Bank Reef,no data,no data,no data,88,no data,YES,partial bleaching,none,Bleaching,paling,none,none,none,51-75%,30,17,fire coral,no data,no data,"I wasn't able to do any systematic surveys, but these were my general
impressions:
-Diploria: always bleached; most colonies were entirely white, but all
showed severe paling
-Porites astreoides: paling, but few colonies were completely bleached
-Porites porites: Variable, but most colonies showed evidence of bleaching
and/or paling
-Millepora: often bleached, especially colony tips
-Siderastrea siderea: almost no paling/bleaching
-Obricella: very few colonies present, but no bleaching observed; same goes
for Montastraea cavernosa"
Email, Cindy Lewis,9/9/2015,no data,Long Key,FL,Research, Keys Marine Lab,24.71782,-80.84213,35, Middle Keys, LKLD-2,Bank Reef, 0-5 kts,86,88,88,clear,YES,Bleaching, Bleaching,Bleaching,Bleaching, Bleaching,none,none,51-75%,35,30,fire coral,palythoa,gorgonians,"bleached: D cyl, O fav, P ast, P por, D lab, D strig, M mean, M cav, S sid,
Agaricia sp,
pale & bleached octocoral: A americana, Eunicia, Muricia, Muriciopsis,
Briarium"
Email, Cindy Lewis,9/9/2015,no data,Long Key,FL, Research, Keys Marine Lab,24.71778,-80.84520,26, Middle Keys, LKLD-1,Bank Reef, 0-5 kts,86,88,88,clear,YES,Bleaching, Bleaching,Bleaching,Bleaching, Bleaching,none,none,51-75%,26,20,fire coral,palythoa,gorgonians,
Email, Cindy Lewis,9/9/2015,no data,Long Key,FL, Research, Keys Marine Lab,24.68988,-80.91917,30, Middle Keys, Critter Ridge,other/don't know, 0-5 kts,86,88,88,clear,YES,Bleaching, Bleaching,Bleaching,Bleaching, Bleaching,none,none,51-75%,30,25,fire coral,palythoa,gorgonians,"bleach: O fav, D cyl, M mean, M cav, D lab, D strig, P por, P ast, Agaricia
octocorals bleached & pale"
Email, Cindy Lewis,9/9/2015,no data,Long Key,FL, Research, Keys Marine Lab,24.65593,-81.01222,27, Middle Keys, Parallel Reef,Bank Reef, 0-5 kts,86,88,88,clear,YES,Bleaching,paling,Bleaching,Bleaching, Bleaching,none,none,51-75%,27,25,fire coral,palythoa,gorgonians,"bleach: O fav, M mean, M cav, D lab, D strig, P por, P ast, Agaricia, A palm pale: D cyl, C nat, A prol, A palm, A cerv (outplants) octocorals bleached & pale BBD: C nat"
Email, Cindy Lewis,9/9/2015,no data,Long Key,FL, Research, Keys Marine Lab,24.62970,-81.09315,33, Middle Keys, Sombrero Out,Bank Reef, 0-5 kts,86,88,88,clear,YES,Bleaching, Bleaching,Bleaching,Bleaching, Bleaching,none,none,76-100%,33,30,fire coral,palythoa,gorgonians,"bleach: D cyl, O fav, M mean, M cav, D lab, D strig, P por, P ast, Agaricia

octocorals bleached & pale"
Email, Cindy Lewis,9/9/2015,no data,Long Key,FL, Research, Keys Marine Lab,24.62548,-81.11178,26, Sombrero Reef SPA,no data,Bank Reef, 0-5 kts,86,88,88,clear,YES,Bleaching,paling,Bleaching,Bleaching, Bleaching,none,none,76-100%,26,15,fire coral,palythoa,gorgonians,"bleach: O fav, M mean, M cav, D lab, D strig, P por, P ast, Agaricia, A palm
pale: D cyl, C nat, A prol, A palm, A cerv (outplants)
octocorals bleached & pale
BBD: C nat"
In Person,Cory Walter,9/10/2015,no data,Summerland Key,FL,Research,Mote Marine Laboratory,24.50012,-81.62958,17,FRRP 1272,no data,other/don't know,no data,no data,no data,86,no data,YES,partial bleaching,Bleaching,paling,partial bleaching, Bleaching,paling,none,76-100%,no data,no data,no data,no data,no data,
In Person,Cory Walter,9/10/2015,no data,Summerland Key,FL,Research,Mote Marine Laboratory,24.51377,-81.61843,13,FRRP 1268,no data,other/don't know,no data,no data,no data,86,no data,YES,paling,paling,none,partial bleaching,none,none,none,31-50%,no data,no data,no data,no data,no data,
In Person,Cory Walter,9/10/2015,no data,Summerland Key,FL,Research,Mote Marine Laboratory,24.52622,-81.62611,20,FRRP 1257,no data,other/don't know,no data,no data,no data,87,no data,YES,paling,paling,paling,paling,paling,none,none,31-50%,no data,no data,no data,no data,no data,
In Person,Cory Walter,9/10/2015,no data,Summerland Key,FL,Research,Mote Marine Laboratory,24.52983,-81.63037,18,FRRP 2210,no data,other/don't know,no data,no data,no data,87,no data,YES,paling,paling,partial bleaching,partial bleaching,paling,none,none,31-50%,no data,no data,no data,no data,no data,
In Person,Cory Walter,9/10/2015,no data,Summerland Key,FL,Research,Mote Marine Laboratory,24.53475,-81.63209,16,FRRP 1258,no data,other/don't know,no data,no data,no data,87,no data,YES,paling,Bleaching,paling,paling, Bleaching,paling,Bleaching ,31-50%,no data,no data,no data,no data,no data,
Email, Cindy Lewis,9/10/2015,no data,Long Key,FL, Research, Keys Marine Lab,24.57997,-81.28777,31, Lower Keys, Bahia Honda Pillars 1,Patch Reef, 5-10 kts,88,88,88,clear,YES,Bleaching, Bleaching,Bleaching,Bleaching, Bleaching,none,Bleaching ,76-100%,31,30,fire coral,palythoa,gorgonians,"bleached: S sid, Solenestria, P ast, P por, Euc, D stok, C nat, O fav, O
ann, M cav, Agaricia, D lab, D stri, M mean
bleached octos: A americana, Psuedoplexara, Plexarella, Eunicia spp,
Muricia, Plexaura, Briarium"
Email, Cindy Lewis,9/10/2015,no data,Long Key,FL, Research, Keys Marine Lab,24.58433,-81.25835,29, Lower Keys, Bahia Honda Pillars 5,Patch Reef, 5-10 kts,88,88,90,clear,YES,Bleaching, Bleaching,Bleaching,Bleaching, Bleaching,none,Bleaching ,76-100%,29,25,fire coral,palythoa,gorgonians,"bleached: D cyl, S sid, Solenestria, P ast, P por, Euc, D stok, C nat, O
fav, O ann, M cav, Agaricia, D lab, D stri, M mean
bleached octos: A americana, Psuedoplexara, Plexarella, Eunicia spp,
Muricia, Plexaura, Briarium"
Email, Cindy Lewis,9/10/2015,no data,Long Key,FL, Research, Keys Marine Lab,24.58517,-81.25265,32, Lower Keys, Bahia Honda Pillars 3,Patch Reef, 5-10 kts,88,88,90,clear,YES,Bleaching, Bleaching,Bleaching,Bleaching, Bleaching,none,Bleaching ,76-100%,32,30,fire coral,palythoa,gorgonians,"bleached: D cyl, S sid, Solenestria, P ast, P por, Euc, D stok, C nat, O
fav, O ann, M cav, Agaricia, D lab, D stri, M mean
bleached octos: A americana, Psuedoplexara, Plexarella, Eunicia spp,
Muricia, Plexaura, Briarium
BBD: C nat, G vent"
Email, Cindy Lewis,9/10/2015,no data,Long Key,FL, Research, Keys Marine Lab,24.58560,-81.25112,32, Lower Keys, Bahia Honda Pillars 4,Patch Reef, 5-10 kts,88,88,90,clear,YES,Bleaching, Bleaching,Bleaching,Bleaching, Bleaching,none,Bleaching ,76-100%,32,30,fire coral,palythoa,gorgonians,"bleached: D cyl, S sid, Solenestria, P ast, P por, Euc, D stok, C nat, O
fav, O ann, M cav, Agaricia, D lab, D stri, M mean
bleached octos: A americana, Psuedoplexara, Plexarella, Eunicia spp,
Muricia, Plexaura, Briarium
WP: D cyl"
Email, Cindy Lewis,9/10/2015,no data,Long Key,FL, Research, Keys Marine Lab,24.59005,-81.24897,32, Lower Keys, Bahia Honda Pillars 2,Patch Reef, 5-10 kts,88,88,90,clear,YES,Bleaching, Bleaching,Bleaching,Bleaching, Bleaching,none,Bleaching ,76-100%,32,30,fire coral,no data,no data,"bleached: D cyl, S sid, Solenestria, P ast, P por, Euc, D stok, C nat, O
fav, O ann, M cav, Agaricia, D lab, D stri, M mean
bleached octos: A americana, Psuedoplexara, Plexarella, Eunicia spp,
Muricia, Plexaura, Briarium
"
Email, Cindy Lewis,9/12/2015,no data,Long Key,FL, Research, Keys Marine Lab,24.76429,-80.96139,6, Middle Keys - bayside, Burnt Point,Hardbottom , 10-15 kts,85,89,89,partly cloudy,YES,partial bleaching,none,none,paling,none,none,Bleaching ,51-75%,6,5,gorgonians,no data,no data,"bayside hardbottom observations:
Briarium - some pale, others totally white; Pterogorgia - pale,
Antillogorgia anceps - white
not many hard corals: most ""golf ball size"" corals slightly pale but ok (S
rad, Sol, Fav); Mancinea 2 of 2 colonies were completely bleached; totally
bleached sun anemone"
Email,Ken Nedimyer,9/14/2015,no data,Key Largo,FL,Education,Coral Restoration Foundation,24.95183,-80.45940,10,Conch Reef,no data,other/don't know,no data,no data,no data,no data,no data,YES,Bleaching,Bleaching,Bleaching,paling,unknown,unknown,unknown,76-100%,no data,no data,fire coral,no data,no data,
Email,Ken Nedimyer,9/14/2015,no data,Key Largo,FL,Education,Coral Restoration Foundation,24.94250,-80.47383,no data,Little Conch Reef,no data,other/don't know,no data,no data,no data,no data,no data,YES,Bleaching,Bleaching,Bleaching,paling,unknown,unknown,unknown,76-100%,no data,no data,fire coral,no data,no data,
Email,Ken Nedimyer,9/14/2015,no data,Key Largo,FL,Education,Coral Restoration Foundation,25.01468,-80.42249,no data,Key Largo Mid-Channel,no data,Mid-Channel Reef,no data,no data,no data,no data,no data,YES,Bleaching,Bleaching,Bleaching,paling,unknown,unknown,unknown,76-100%,no data,no data,no data,no data,no data,
Email, Kerry Maxwell,9/14/2015,10:00,Marathon,FL, Research,Florida Fish and Wildlife (FWC),24.69948,-80.96678,21, Nearshore patch outplant site,no data,Patch Reef, 5-10 kts,no data,no data,no data,partly cloudy,YES,Bleaching, Bleaching,Bleaching,Bleaching, Bleaching, Bleaching,Bleaching ,51-75%,21,15,fire coral,gorgonians,no data,"Not all individuals were bleached, but certainly some of each of the coral
categories were completely bleached. Other were partial bleached or pale. I
assume if we see any that are completely bleached, we count them as bleached
for that coral category. Let me know if that's wrong. Thanks Cory!"
Email, Kerry Maxwell,9/14/2015,14:00,Marathon,FL, Research,Florida Fish and Wildlife (FWC),24.69767,-80.95810,20, Jeff's patch,no data,Patch Reef, 5-10 kts,no data,no data,no data,partly cloudy,YES,partial bleaching, Bleaching,partial bleaching,partial bleaching, Bleaching,unknown,unknown,31-50%,18,20,gorgonians,no data,no data,
Email,Forrest Young,9/15/2015,no data,Marathon,FL,Dive Industry,Dynasty Marine,24.70175,-81.15629,no data,Moser Channel,no data,other/don't know,no data,no data,no data,no data,no data,YES,partial bleaching,no data,no data,no data,no data,no data,no data,no data,no data,no data,no data,no data,no data,Email sent via Forrest Young…general observations
Email,Forrest Young,9/16/2015,no data,Marathon,FL,Dive Industry,Dynasty Marine,24.79685,-80.86698,no data,Long Key,no data,other/don't know,no data,no data,no data,no data,no data,YES,partial bleaching,no data,no data,no data,no data,no data,no data,no data,no data,no data,no data,no data,no data,Email sent via Forrest Young…general observations
In Person,Cory Walter,9/17/2015,no data,Summerland Key,FL, Research,Mote Marine Laboratory,24.54205,-81.40790,43,Looe Deep Reef,no data,Deep Reef,5-10 kts,no data,no data,no data,cloudy,YES,partial bleaching,partial bleaching,partial bleaching,partial bleaching,partial bleaching,partial bleaching,partial bleaching,31-50%,no data,no data,gorgonians,fire coral,palythoa,
In Person,Cory Walter,9/17/2015,no data,Summerland Key,FL, Research,Mote Marine Laboratory,24.54526,-81.40793,18,Looe Key SPA,no data,Bank Reef,5-10 kts,no data,no data,no data,cloudy,YES,partial bleaching,partial bleaching,partial bleaching,partial bleaching,partial bleaching,partial bleaching,partial bleaching,31-50%,no data,no data,gorgonians,fire coral,palythoa,
Email,Forrest Young,9/17/2015,no data,Marathon,FL,Dive Industry,Dynasty Marine,24.83749,-80.77345,no data,Channel 5,no data,other/don't know,no data,no data,no data,no data,no data,YES,partial bleaching,no data,no data,no data,no data,no data,no data,no data,no data,no data,no data,no data,no data,Email sent via Forrest Young…general observations
Email, Elizabeth McNamee,9/18/2015,no data,Key Largo,FL,Education,Marine Resources,25.13983,-80.29463,20, Horseshoe Reef, H1/North Ball,Bank Reef, 0-5 kts,81,86,86,clear,YES,Bleaching, Bleaching,paling,paling, Bleaching,unknown,paling,31-50%,15,4,fire coral,gorgonians,palythoa,"The huge patch of A. palmata is paling and bleaching quite extensively. 
There also seems to be a disease (looks like white band) leading to a lot of
algae coverage.  M. complanata is stark white as is many M. alcicornis.  The
P. porites is paling, as is the Siderastreas (purple colonies) and there are
a couple large boulders of different species that appear to be paling, but
not yet bleaching."
Email,Chris Berg,9/18/2015,no data,Big Pine Key,FL, Resident,The Nature Conservancy,24.98200,-80.42167,no data,Snapper Ledge,no data,other/don't know,no data,no data,no data,no data,no data,YES,partial bleaching,no data,no data,no data,no data,no data,no data,51-75%,no data,no data,no data,no data,no data,
Email,Forrest Young,9/18/2015,no data,Marathon,FL,Dive Industry,Dynasty Marine,24.84257,-80.74919,no data,Channel 2,no data,other/don't know,no data,no data,no data,no data,no data,YES,partial bleaching,no data,no data,no data,no data,no data,no data,no data,no data,no data,no data,no data,no data,Email sent via Forrest Young…general observations
Email,Forrest Young,9/18/2015,no data,Marathon,FL,Dive Industry,Dynasty Marine,24.84935,-80.75126,no data,Old Channel 2 Bridge Pilings,no data,other/don't know,no data,no data,no data,no data,no data,YES,paling,no data,no data,no data,no data,no data,no data,no data,no data,no data,no data,no data,no data,Email sent via Forrest Young…general observations
Email, Cindy Lewis,9/18/2015,no data,Long Key,FL, Research, Keys Marine Lab,24.74550,-80.77892,23,Tenessee Reef,no data,Bank Reef, 10-15 kts,85,84,84,partly cloudy,YES,Bleaching,partial bleaching,Bleaching,Bleaching, Bleaching,none,none,76-100%,23,20,fire coral,no data,no data,"many species of octos totally bleached, other pale, some normal
bleached: D lab, M mean, Agaricia, P por, P ast, A cerv
pale: C nat, D cliv, D strig, M cav,"
Email, Cindy Lewis,9/18/2015,no data,Long Key,FL, Research, Keys Marine Lab,24.75918,-80.80413,21, Middle Keys, Soft Coral patch,Patch Reef, 10-15 kts,85,84,82,partly cloudy,YES,Bleaching,none,Bleaching,Bleaching, Bleaching,none,none,no data,21,15,fire coral,no data,no data,"Additional Comments:
BBD: M cav
Dark Spot: Meandina
dead X muta
bleached: D lab, M mean, P por, Agaricia,
pale: C nat, D stok, D. strig, D cliv, O fav
pale and bleached octos"
Email,Alex Bylesky,9/19/2015,no data,Key West,FL,Education,Florida Keys Community College ,24.45247,-81.88059,no data,Sand Key,no data,Bank Reef,no data,no data,no data,no data,no data,YES,partial bleaching,no data,no data,no data,no data,no data,no data,76-100%,no data,no data,no data,no data,no data,
Email,Alex Bylesky,9/19/2015,no data,Key West,FL,Education,Florida Keys Community College ,24.45350,-81.86000,no data,Rock Key,no data,other/don't know,no data,no data,no data,no data,no data,YES,partial bleaching,no data,no data,no data,no data,no data,no data,76-100%,no data,no data,no data,no data,no data,
Email, Cindy Lewis,9/19/2015,no data,Long Key,FL, Research, Keys Marine Lab,24.75238,-80.75492,68, Tennessee Reef , Coff PE-TN1,Deep Reef, 10-15 kts,85,84,86,clear,YES,partial bleaching,none,partial bleaching,partial bleaching, Bleaching,none,paling,76-100%,68,55,fire coral,no data,no data,"bleached: Agaricia, P por, M cav, S sid, D strig
pale: M cav, O fav, S sid, Eusmillia
some octocoral bleached: Briarium, Erythropodium, Plexaurella
picnocline at 55' to bottom, top layer noticeably cooler"
Email, Bill Ferrell,9/20/2015,no data,Long Key,FL, Research, Keys Marine Lab,24.70043,-80.89342,28, Pork Fish Reef ,South fo Duck Key,Patch Reef, 0-5 kts,87,86,86,partly cloudy,YES,Bleaching,none,Bleaching,partial bleaching,partial bleaching,none,none,51-75%,28,12,fire coral,no data,no data,
Email,Vanessa Brinkhuis,9/21/2015,no data,Marathon,FL,Research,Florida Fish and Wildlife (FWC),24.75270,-80.75780,no data, Tennessee Reef ,Deep,Deep Reef,no data,no data,no data,no data,no data,YES,Bleaching,no data,no data,no data,no data,no data,no data,76-100%,no data,no data,no data,no data,no data,"Species most severely affected were Diploria/Pseudodiploria spp., Eusmilia fastigiata, Porites spp., Scolemia, Orbicella spp., Colpophyllia natans, Meandrina meandrites, Acropora cervicornis and Millepora alcicornis.  Black Band Disease was also observed affecting Diploria/Pseudodiploria spp., Colpophyllia natans.  In addition to stony corals, octocorals were bleaching as well.  Total bleaching was seen in Muricea spp., partial bleaching (top portions of colonies/tips of branches) in Pseudoplexaura spp. and Plexaurella spp., and paling in other genera including Antillogorgia, Muriceopsis, Eunicea and Plexaura.  "
Email,Vanessa Brinkhuis,9/21/2015,no data,Marathon,FL,Research,Florida Fish and Wildlife (FWC),24.74500,-80.78120,no data, Tennessee Reef ,no data,Bank Reef,no data,no data,no data,no data,no data,YES,Bleaching,no data,no data,no data,no data,no data,no data,51-75%,no data,no data,no data,no data,no data,
Email, Cindy Lewis,9/21/2015,no data,Long Key,FL, Research, Keys Marine Lab,24.68188,-80.97092,20,Coffins Patch SPA, Coffins Patch Pillars,Patch Reef, 0-5 kts,85,86,86,clear,YES,partial bleaching,partial bleaching,Bleaching,Bleaching, Bleaching,none,none,51-75%,25,20,fire coral,no data,no data,"BBD: D cyl, M cav, C nat, D lab
WP: D cyl"
In Person,Cory Walter,9/22/2015,no data,Summerland Key,FL, Research,Mote Marine Laboratory,24.50393,-81.60381,25,FRRP 1273,no data,other/don't know,no data,no data,no data,no data,no data,YES,paling,unknown,paling,paling,unknown,unknown,unknown,31-50%,no data,no data,gorgonians,fire coral,palythoa,
In Person,Cory Walter,9/22/2015,no data,Summerland Key,FL, Research,Mote Marine Laboratory,24.52487,-81.57590,13,FRRP 2222,no data,other/don't know,no data,no data,no data,no data,no data,YES,paling,unknown,paling,paling, Bleaching,unknown,unknown,11-30%,no data,no data,fire coral,no data,no data,
In Person,Cory Walter,9/22/2015,no data,Summerland Key,FL, Research,Mote Marine Laboratory,24.54079,-81.61189,14,FRRP 2221,no data,other/don't know,no data,no data,no data,no data,no data,YES,paling,paling,paling,paling, Bleaching,unknown,Bleaching ,11-30%,no data,no data,no data,no data,no data,
In Person,Cory Walter,9/22/2015,no data,Summerland Key,FL, Research,Mote Marine Laboratory,24.57800,-81.59109,9,FRRP 1254,no data,other/don't know,no data,no data,no data,no data,no data,YES,paling,paling,none,none,none,none,none,1-10%,no data,no data,no data,no data,no data,
In Person,Cory Walter,9/22/2015,no data,Summerland Key,FL, Research,Mote Marine Laboratory,24.58570,-81.58262,7,Japp Reef,no data,Patch Reef,no data,no data,no data,no data,no data,YES,partial bleaching,paling,partial bleaching,partial bleaching,partial bleaching,unknown,unknown,76-100%,no data,no data,no data,no data,no data,
Email,Robert Etti,9/22/2015,no data,Summerland Key,FL, Resident,Mote Marine Laboratory,24.55756,-81.80842,10,"Pier B, Key West",no data,Patch Reef,no data,no data,no data,no data,no data,YES,Bleaching,no data,Bleaching,no data,no data,no data,no data,76-100%,no data,no data,no data,no data,no data,
Email,Vanessa Brinkhuis,9/22/2015,no data,Marathon,FL,Research,Florida Fish and Wildlife (FWC),24.62310,-81.11050,60,Sombrero Reef SPA,Deep,Deep Reef,no data,no data,no data,no data,no data,YES,partial bleaching,no data,no data,no data,no data,no data,no data,31-50%,no data,no data,no data,no data,no data, We would estimate the bleaching to be about 25-50% at our Sombrero Deep site at 50'.  Same species as below affected but the species most affected were Agaricia spp and Porites spp. Also saw H.cuculata bleaching. Octos were paling but not near as bad as at Tennessee.
Email, Cindy Lewis,9/22/2015,no data,Long Key,FL, Research, Keys Marine Lab,24.99173,-80.40860,23,Pickles Reef, Pickle 3,Bank Reef, 5-10 kts,85,86,86,partly cloudy,YES,partial bleaching,paling,partial bleaching,partial bleaching,partial bleaching,none,none,31-50%,25,15,no data,no data,no data,WP: D cyl
In Person,Cory Walter,9/23/2015,no data,Summerland Key,FL, Research,Mote Marine Laboratory,24.56023,-81.50127,25,Wonderland,no data,Mid-Channel Reef,no data,no data,no data,no data,no data,YES,paling,paling,partial bleaching,paling,paling,paling,Bleaching ,31-50%,no data,no data,no data,no data,no data,
In Person,Cory Walter,9/24/2015,9:00,Summerland Key,FL, Research,Mote Marine Laboratory,24.54341,-81.41194,80,Looe Deep Reef,no data,Deep Reef,5-10 kts,no data,no data,no data,cloudy,YES,partial bleaching,Bleaching,Bleaching,partial bleaching, Bleaching,paling,Bleaching ,31-50%,no data,no data,gorgonians,fire coral,no data,BB Disease
In Person,Cory Walter,9/24/2015,no data,Summerland Key,FL, Research,Mote Marine Laboratory,24.55320,-81.43758,25,Acer 24,no data,other/don't know,no data,no data,no data,no data,no data,YES,partial bleaching,Bleaching,Bleaching,partial bleaching, Bleaching,none,Bleaching ,51-75%,no data,no data,gorgonians,fire coral,palythoa,BB Disease
In Person,Cory Walter,9/24/2015,no data,Summerland Key,FL, Research,Mote Marine Laboratory,24.55473,-81.42780,20,West of Looe Nursery,no data,other/don't know,5-10 kts,no data,no data,no data,cloudy,YES,partial bleaching,Bleaching,Bleaching,paling, Bleaching,unknown,Bleaching ,51-75%,no data,no data,gorgonians,fire coral,palythoa,BB Disease
In Person,Cory Walter,9/24/2015,no data,Summerland Key,FL, Research,Mote Marine Laboratory,24.56304,-81.40029,28,Looe Nursery Reef,no data,other/don't know,5-10 kts,no data,no data,no data,cloudy,YES,partial bleaching,Bleaching,Bleaching,partial bleaching, Bleaching,unknown,partial bleaching,51-75%,no data,no data,gorgonians,fire coral,palythoa,BB Disease
Email, Mark Chiappone,9/24/2015,12:00,Miami,FL, Research, NSU-OC,24.94663,-80.46930,18,Little Conch Reef, Fore reef,Hardbottom , 5-10 kts,87,84,85,mostly cloudy,YES,Bleaching, Bleaching,paling,partial bleaching,partial bleaching,none,paling,51-75%,18,16,fire coral,no data,no data,"Surveys were conducted on the shallow side of Little Conch Reef from
