Contact Method,Name,Date,Time,City,State,Observer,Vessel,GIS Latitude,GIS Longitude,Depth (ft),Location,Region/Buoy#,Reef Zone,Wind Spd.,Air Temp (°F),SST (°F),Bottom Temp (°F),Cloud Cover,Bleaching?,Severity,Branching/Pillar,Brain,Encrusting/Mound/Boulder,Flowering/Cup,Leaf/Plate/Sheet,Fleshy,% bleached,Max Depth,Min Depth,Baseline Indicators,Baseline Indicators,Baseline Indicators,Notes,
Email ,Cindy Lewis & Tom Bartlett,5/30/2014,11:00,Long Key,FL,Research,Keys Marine Lab,24.72505,-80.91887,no data,East Turtle Shoals,no data,patch reef,10-15 kts,85,82,82,clear,NO,none,none,none,none,none,none,none,0%,no data,no data,no data,no data,no data,,
Email ,Cindy Lewis & Tom Bartlett,5/30/2014,12:00,Long Key,FL,Research,Keys Marine Lab,24.71283,-80.94525,21,Middle Turtle Shoals,no data,patch reef,10-15 kts,85,82,82,clear,NO,none,none,none,none,none,none,none,0%,15,0,no data,no data,no data,purple blotch on Ssid,
Email ,Cindy Lewis & Tom Bartlett,5/30/2014,13:30,Long Key,FL,Research,Keys Marine Lab,24.73237,-80.90117,25,Lion's Lair,no data,patch reef,10-15 kts,85,82,82,clear,NO,none,none,none,none,none,none,none,0%,no data,no data,no data,no data,no data,purple blotch on Ssid; lots of Lionfish!,
Email ,Tyler Stepanek,5/30/2014,11:00,Summerland Key,FL,Education,Order of the Arrow,24.62232,-81.36407,15,no data,no data,patch reef,10-15 kts,81,no data,no data,partly cloudy,NO,none,none,none,none,none,none,none,0%,no data,no data,no data,no data,no data,,
Email ,Tyler Stepanek,5/31/2014,15:00,Summerland Key,FL,Education,Order of the Arrow,24.52512,-81.51948,10,no data,no data,patch reef,10-15 kts,81,no data,no data,partly cloudy,NO,none,none,none,none,none,none,none,0%,no data,no data,no data,no data,no data,Corals knocked over from fast currents and wave action.,
In person,Cory Walter,6/2/2014,14:00,Summerland Key,FL,Research,Mote Marine Laboratory,24.62671,-82.89661,24,DRTO Nursery,no data,other/don't know,no data,no data,no data,no data,no data,NO,none,none,none,none,none,none,none,0%,no data,no data,no data,no data,no data,,
In person,Cory Walter,6/3/2014,11:00,Summerland Key,FL,Research,Mote Marine Laboratory,24.61913,-82.92278,18,DRTO Birthday Reef,no data,other/don't know,no data,no data,no data,no data,no data,NO,none,none,none,none,none,none,none,0%,no data,no data,no data,no data,no data,,
In person,Cory Walter,6/3/2014,15:20,Summerland Key,FL,Research,Mote Marine Laboratory,24.61969,-82.92044,20,DRTO Biota Box,no data,other/don't know,no data,no data,no data,no data,no data,NO,none,none,none,none,none,none,none,0%,no data,no data,no data,no data,no data,,
In person,Cory Walter,6/4/2014,9:40,Summerland Key,FL,Research,Mote Marine Laboratory,24.66927,-82.90843,22,DRTO Offramp,no data,other/don't know,no data,no data,no data,no data,no data,NO,none,none,none,none,none,none,none,0%,no data,no data,no data,no data,no data,,
In person,Cory Walter,6/4/2014,11:15,Summerland Key,FL,Research,Mote Marine Laboratory,24.66405,-82.91243,24,DRTO Perfection,no data,other/don't know,no data,no data,no data,no data,no data,NO,none,none,none,none,none,none,none,0%,no data,no data,no data,no data,no data,,
Email ,Cindy Lewis & Tom Bartlett,6/4/2014,10:00,Long Key,FL,Research,Keys Marine Lab,24.90047,-80.61723,20,Cheeca Rocks SPA,no data,patch reef,5-10 kts,80,80,80,clear,NO,none,none,none,none,none,none,none,0%,no data,no data,no data,no data,no data,,
Email ,Cindy Lewis & Tom Bartlett,6/4/2014,12:00,Long Key,FL,Research,Keys Marine Lab,24.62400,-80.84570,25,Alligator SPA,no data,reef,5-10 kts,80,80,80,clear,NO,none,none,none,none,none,none,none,0%,no data,no data,no data,no data,no data,,
Email ,Cindy Lewis & Tom Bartlett,6/4/2014,13:00,Long Key,FL,Research,Keys Marine Lab,24.77828,-80.73590,25,Stag Party East,no data,patch reef,5-10 kts,80,80,80,clear,NO,none,none,none,none,none,none,none,0%,no data,no data,no data,no data,no data,,
In person,Cory Walter,6/5/2014,12:00,Summerland Key,FL,Research,Mote Marine Laboratory,24.60998,-83.08805,65,Near Bat Cave,no data,deep reef,no data,no data,no data,no data,no data,NO,none,none,none,none,none,none,none,0%,no data,no data,no data,no data,no data,,
In person,Cory Walter,6/6/2014,10:00,Summerland Key,FL,Research,Mote Marine Laboratory,24.56749,-81.38804,25,"ROA, Steph's site",no data,other/don't know,no data,no data,no data,no data,no data,NO,none,none,none,none,none,none,none,0%,no data,no data,no data,no data,no data,,
Email ,Tyler Stepanek,6/6/2014,11:00,Summerland Key,FL,Education,Order of the Arrow,24.76640,-81.57558,no data,no data,no data,patch reef,no data,no data,no data,no data,partly cloudy,YES,paling,none,paling,none,none,none,none,1-10%,5,10,no data,no data,no data,White band disease on Brain Coral.,
Email ,Cindy Lewis & Tom Bartlett,6/10/2014,13:00,Long Key,FL,Research,Keys Marine Lab,24.57997,-81.28777,30,Bahia Honda Pillars,no data,patch reef,10-15 kts,80,80,80,clear,NO,none,none,none,none,none,none,none,0%,no data,no data,no data,no data,no data,,
Email ,Cindy Lewis & Tom Bartlett,6/10/2014,14:30,Long Key,FL,Research,Keys Marine Lab,24.58512,-81.25318,30,Bahia Honda Pillars 3,no data,patch reef,10-15 kts,80,80,80,clear,NO,none,none,none,none,none,none,none,0%,no data,no data,no data,no data,no data,,
Email ,Cindy Lewis & Tom Bartlett,6/10/2014,15:30,Long Key,FL,Research,Keys Marine Lab,24.58987,-81.24923,30,Bahia Honda Pillars 4,no data,patch reef,10-15 kts,80,80,80,clear,NO,none,none,none,none,none,none,none,0%,no data,no data,no data,no data,no data,,
Email ,Jessica Pulfer,6/11/2014,9:45,Key Largo,FL,Education,Marine Resources,25.13963,-80.29403,20,Horseshoe Reef,North ball,reef,0-5 kts,no data,no data,no data,partly cloudy,YES,paling,no data,no data,no data,no data,no data,no data,1-10%,18,5,palythoa,no data,no data,,
Email ,Jessica Pulfer,6/11/2014,10:30,Key Largo,FL,Education,Marine Resources,25.13633,-80.28932,20,North Dry Rocks,Middle ball,reef,0-5 kts,no data,no data,no data,partly cloudy,NO,none,none,none,none,none,none,none,0%,no data,no data,no data,no data,no data,,
In person,Cory Walter,6/11/2014,10:00,Summerland Key,FL,Research,Mote Marine Laboratory,24.55182,-81.38751,no data,Site N,no data,patch reef,no data,no data,no data,no data,no data,NO,none,none,none,none,none,none,none,0%,no data,no data,no data,no data,no data,,
In person,Cory Walter,6/11/2014,12:00,Summerland Key,FL,Research,Mote Marine Laboratory,24.55116,-81.38960,no data,Site H,no data,patch reef,no data,no data,no data,no data,no data,NO,none,none,none,none,none,none,none,0%,no data,no data,no data,no data,no data,,
In person,Cory Walter,6/11/2014,14:00,Summerland Key,FL,Research,Mote Marine Laboratory,24.57917,-81.49692,no data,Birthday Reef,no data,mid-channel reef,no data,no data,no data,no data,no data,NO,none,none,none,none,none,none,none,0%,no data,no data,no data,no data,no data,,
Email ,Tyler Stepanek,6/18/2014,11:45,Summerland Key,FL,Education,Order of the Arrow,24.57985,-81.56383,20,Sugarloaf Patch Reef,no data,patch reef,5-10 kts,82,no data,no data,partly cloudy,YES,paling,paling,none,none,none,paling,none,1-10%,15,17,no data,no data,no data,,
Email ,Tyler Stepanek,6/18/2014,11:45,Summerland Key,FL,Education,Order of the Arrow,24.54792,-81.59018,15,no data,no data,patch reef,5-10 kts,82,no data,no data,partly cloudy,YES,paling,paling,none,partial bleaching,none,paling,none,31-50%,6,10,gorgonians,no data,no data,Lots of disease ,
Email ,Cindy Lewis & Tom Bartlett,6/19/2014,12:00,Long Key,FL,Research,Keys Marine Lab,24.70682,-80.86413,68,Lost Ledge,no data,deep reef,0-5 kts,85,80,80,clear,NO,none,none,none,none,none,none,none,0%,no data,no data,no data,no data,no data,,
Email ,Cindy Lewis & Tom Bartlett,6/19/2014,13:15,Long Key,FL,Research,Keys Marine Lab,24.71732,-80.84237,30,Long Key Ledge,no data,reef,0-5 kts,85,80,80,clear,NO,none,none,none,none,none,none,none,0%,no data,no data,no data,no data,no data,,
In person,Cory Walter,6/19/2014,10:00,Summerland Key,FL,Research,Mote Marine Laboratory,24.53145,-81.48355,no data,Site C,no data,patch reef,5-10 kts,87,87,86,no data,YES,paling,none,none,paling,none,none,none,1-10%,no data,no data,no data,no data,no data,,
Email ,Tyler Stepanek,6/23/2014,9:30,Summerland Key,FL,Education,Order of the Arrow,24.62005,-81.37068,15,no data,no data,patch reef,no data,no data,no data,no data,clear,YES,paling,none,none,partial bleaching,none,none,none,11-30%,no data,no data,no data,no data,no data,,
Email ,Tyler Stepanek,6/23/2014,10:00,Summerland Key,FL,Education,Order of the Arrow,24.59608,-81.45918,no data,no data,no data,patch reef,no data,no data,no data,no data,clear,YES,paling,none,paling,paling,none,none,none,11-30%,no data,no data,no data,no data,no data,Some disease on Brain Coral,
Email ,Tyler Stepanek,6/23/2014,13:30,Summerland Key,FL,Education,Order of the Arrow,24.57970,-81.56382,12,no data,no data,patch reef,no data,no data,no data,no data,partly cloudy,YES,paling,none,paling,paling,paling,none,none,31-50%,no data,no data,no data,no data,no data,,
Email ,Tyler Stepanek,6/23/2014,15:00,Summerland Key,FL,Education,Order of the Arrow,24.54877,-81.58702,12,no data,no data,patch reef,no data,no data,no data,no data,clear,YES,paling,none,none,paling,none,none,none,1-10%,no data,no data,no data,no data,no data,Some disease on Encrusting/Mound/Boulder coral.,
Email ,Dave Vanden Bosch,6/24/2014,no data,Summerland Key,FL,Dive Industry,Captain Hooks,24.71264,-80.97309,18,Holy Net,no data,mid-channel reef,calm,86,84,84,clear,NO,none,none,none,none,none,none,none,0%,15,14,no data,no data,no data,,
In person,Cory Walter,6/25/2014,9:00,Summerland Key,FL,Research,Mote Marine Laboratory,24.54577,-81.40427,22,Looe #9,no data,reef,5-10 kts,85,85,no data,no data,NO,none,none,none,none,none,none,none,0%,no data,no data,no data,no data,no data,,
In person,Cory Walter,6/25/2014,13:00,Summerland Key,FL,Research,Mote Marine Laboratory,24.57917,-81.49692,20,Birthday Reef,no data,mid-channel reef,no data,86,no data,no data,no data,YES,paling,no data,no data,no data,no data,no data,no data,no data,no data,no data,no data,no data,no data,,
Email ,Cindy Lewis & Tom Bartlett,6/25/2014,11:00,Long Key,FL,Research,Keys Marine Lab,24.68412,-81.01097,40,Bonefish Hump,no data,mid-channel reef,5-10 kts,85,84,82,partly cloudy,NO,none,none,none,none,none,none,none,0%,no data,no data,no data,no data,no data,,
Email ,Tyler Stepanek,6/25/2014,14:00,Summerland Key,FL,Education,Order of the Arrow,24.63342,-81.08773,10,Delta Shoals,no data,patch reef,10-15 kts,85,no data,no data,partly cloudy,YES,partial bleaching,none,paling,partial bleaching,partial bleaching,none,none,1-10%,no data,no data,no data,no data,no data,,
In person,Cory Walter,6/26/2014,13:00,Summerland Key,FL,Research,Mote Marine Laboratory,24.56850,-81.32565,20,Big Pine Shoals,no data,patch reef,10-15 kts,87,84,84,no data,YES,paling,none,none,paling,none,none,none,1-10%,no data,no data,no data,no data,no data,,
Email ,Danielle Morley,6/27/2014,11:35,Marathon,FL,Research,Florida Fish and Wildlife (FWC),24.59428,-81.22985,36,no data,no data,hardbottom,5-10 kts,no data,87,87,no data,NO,none,none,none,none,none,none,none,0%,no data,no data,no data,no data,no data,,
Email ,Danielle Morley,6/27/2014,10:05,Marathon,FL,Research,Florida Fish and Wildlife (FWC),24.60330,-81.20612,28,no data,no data,patch reef,5-10 kts,no data,86,86,no data,NO,none,none,none,none,none,none,none,0%,no data,no data,no data,no data,no data,,
Email ,Danielle Morley,6/27/2014,13:33,Marathon,FL,Research,Florida Fish and Wildlife (FWC),24.60080,-81.24933,38,no data,no data,patch reef,5-10 kts,no data,87,87,no data,NO,none,none,none,none,none,none,none,0%,no data,no data,no data,no data,no data,,
Email ,Danielle Morley,6/27/2014,12:12,Marathon,FL,Research,Florida Fish and Wildlife (FWC),24.58680,-81.23652,56,no data,no data,reef,5-10 kts,no data,86,84,no data,NO,none,none,none,none,none,none,none,0%,no data,no data,no data,no data,no data,,
Email ,Danielle Morley,6/27/2014,12:53,Marathon,FL,Research,Florida Fish and Wildlife (FWC),24.58533,-81.25307,35,no data,no data,hardbottom,5-10 kts,no data,86,86,no data,NO,none,none,none,none,none,none,none,0%,no data,no data,no data,no data,no data,,
Email ,Cindy Lewis & Tom Bartlett,6/28/2014,10:00,Long Key,FL,Research,Keys Marine Lab,24.90047,-80.61723,20,Cheec Rocks - outside SPA,no data,patch reef,5-10 kts,85,86,86,clear,YES,paling,no data,no data,no data,no data,no data,no data,1-10%,15,10,no data,no data,no data,Palythoa,
Email ,Cindy Lewis & Tom Bartlett,6/28/2014,13:00,Long Key,FL,Research,Keys Marine Lab,24.77828,-80.73590,20,Stag Party East,no data,patch reef,5-10 kts,85,86,86,clear,YES,paling,paling,none,none,none,none,none,1-10%,15,20,no data,no data,no data,Palythoa,
Email ,Lauri Maclaughlin,6/29/2014,15:00,Key Largo,FL,Research,Amoray Diver / NOAA/FKNMS,25.03428,-80.34822,40,French,#4 & 20 respectively,reef,0-5 kts,85,86,84,clear,YES,paling,paling,none,none,paling,none,none,1-10%,40,10,no data,palythoa,no data,fire coral,
Email ,Lauri Maclaughlin,6/29/2014,15:00,Key Largo,FL,Research,Amoray Diver / NOAA/FKNMS,25.01052,-80.37251,no data,Molassas,no data,reef,0-5 kts,85,no data,no data,no data,YES,paling,no data,no data,no data,no data,no data,no data,no data,no data,no data,no data,no data,no data,,
Email ,Jessica Dockery,6/30/2014,11:00,Key Largo,FL,Education,Marine Resources,25.04059,-80.42352,15,Marker 37,no data,patch reef,0-5 kts,82,no data,no data,clear,NO,none,none,none,none,none,none,none,0%,no data,no data,no data,no data,no data,,
Email ,Tyler Stepanek,7/1/2014,13:30,Summerland Key,FL,Education,Order of the Arrow,24.61928,-81.37445,no data,no data,no data,patch reef,no data,no data,no data,no data,partly cloudy,YES,paling,none,none,paling,none,none,none,1-10%,7,12,no data,no data,no data,,
Email ,Tyler Stepanek,7/1/2014,11:00,Summerland Key,FL,Education,Order of the Arrow,24.58000,-81.10250,no data,Sombrero Reef,no data,patch reef,no data,no data,no data,no data,clear,YES,upper surface,partial bleaching,partial bleaching,none,none,none,none,1-10%,12,18,no data,no data,no data,,
Email ,Tyler Stepanek,7/1/2014,15:00,Summerland Key,FL,Education,Order of the Arrow,24.67028,-80.97470,10,Sombrero Reef,no data,patch reef,no data,no data,no data,no data,mostly cloudy,NO,none,none,none,none,none,none,none,0%,no data,no data,no data,no data,no data,,
Email ,Tyler Stepanek,7/1/2014,15:00,Summerland Key,FL,Education,Order of the Arrow,24.51143,-81.56773,14,no data,no data,patch reef,no data,no data,no data,no data,clear,NO,none,none,none,none,none,none,none,0%,no data,no data,no data,no data,no data,,
Email ,Tyler Stepanek,7/1/2014,15:00,Summerland Key,FL,Education,Order of the Arrow,24.51258,-81.56483,18,no data,no data,patch reef,no data,no data,no data,no data,clear,NO,none,none,none,none,none,none,none,0%,no data,no data,no data,no data,no data,,
In person,Cory Walter,7/2/2014,no data,Summerland Key,FL,Research,Mote Marine Laboratory,24.56100,-81.45830,no data,Big Circle,no data,patch reef,no data,no data,no data,no data,no data,NO,none,none,none,none,none,none,none,0%,no data,no data,no data,no data,no data,,
In person,Cory Walter,7/2/2014,no data,Summerland Key,FL,Research,Mote Marine Laboratory,24.55277,-81.38060,no data,Site B,no data,patch reef,no data,no data,no data,no data,no data,NO,none,none,none,none,none,none,none,0%,no data,no data,no data,no data,no data,,
In person,Cory Walter,7/2/2014,no data,Summerland Key,FL,Research,Mote Marine Laboratory,24.55268,-81.38230,no data,Site B,no data,patch reef,no data,no data,no data,no data,no data,NO,none,none,none,none,none,none,none,0%,no data,no data,no data,no data,no data,,
Email ,Tyler Stepanek,7/3/2014,13:30,Summerland Key,FL,Education,Order of the Arrow,24.52168,-80.95030,no data,Coffin's Patch,no data,patch reef,no data,no data,no data,no data,clear,NO,none,none,none,none,none,none,none,0%,no data,no data,no data,no data,no data,,
Email ,Dan Merselis,7/5/2014,17:00,Miami,FL,Visitor,Pennekamp state park snorkel tour,25.13633,-80.28932,30,Key Largo Dry Rocks,no data,reef,no data,no data,no data,no data,mostly cloudy,YES,partial bleaching,partial bleaching,none,none,none,none,none,1-10%,30,15,no data,no data,no data,Palythoa,
Email ,Tyler Stepanek,7/6/2014,14:30,Summerland Key,FL,Education,Order of the Arrow,24.51258,-81.56483,18,no data,no data,patch reef,no data,no data,no data,no data,clear,NO,none,none,none,none,none,none,none,0%,no data,no data,no data,no data,no data,,
Email ,Tyler Stepanek,7/6/2014,15:00,Summerland Key,FL,Education,Order of the Arrow,24.52312,-81.57818,7,no data,no data,patch reef,no data,no data,no data,no data,clear,NO,none,none,none,none,none,none,none,0%,no data,no data,no data,no data,no data,,
Email ,Tyler Stepanek,7/7/2014,13:00,Summerland Key,FL,Education,Order of the Arrow,24.68489,-80.96512,12,Coffin's Patch,6,patch reef,no data,no data,no data,no data,clear,NO,none,none,none,none,none,none,none,0%,no data,no data,no data,no data,no data,,
In person,Cory Walter,7/8/2014,10:00,Summerland Key,FL,Research,Mote Marine Laboratory,24.54521,-81.40728,no data,Looe #9,no data,reef,no data,no data,no data,no data,no data,NO,none,none,none,none,none,none,none,0%,no data,no data,no data,no data,no data,,
Email ,Tyler Stepanek,7/8/2014,18:00,Summerland Key,FL,Education,Order of the Arrow,24.83663,-80.72837,18,no data,no data,patch reef,no data,no data,no data,no data,partly cloudy,YES,paling,none,paling,paling,none,none,none,11-30%,15,18,no data,no data,no data,,
Email ,Danielle Morley,7/9/2014,no data,Marathon,FL,Research,Florida Fish and Wildlife (FWC),24.56172,-81.34995,25,Near Big Pine Shoals - sort of,no data,hardbottom,0-5 kts,no data,87,85,no data,NO,none,none,none,none,none,none,none,0%,no data,no data,no data,no data,no data,,
Email ,Danielle Morley,7/9/2014,11:35,Marathon,FL,Research,Florida Fish and Wildlife (FWC),24.55887,-81.35360,26,no data,no data,patch reef,0-5 kts,no data,87,85,no data,NO,none,none,none,none,none,none,none,0%,no data,no data,no data,no data,no data,,
Email ,Danielle Morley,7/9/2014,12:41,Marathon,FL,Research,Florida Fish and Wildlife (FWC),24.55720,-81.37962,19,no data,no data,patch reef,0-5 kts,no data,87,85,no data,NO,none,none,none,none,none,none,none,0%,no data,no data,no data,no data,no data,,
Email ,Danielle Morley,7/9/2014,9:58,Marathon,FL,Research,Florida Fish and Wildlife (FWC),24.57428,-81.32838,20,no data,no data,hardbottom,0-5 kts,no data,no data,86,no data,YES,paling,none,none,paling,none,none,none,1-10%,19,20,no data,no data,no data,,
Email ,Jessica Dockery,7/9/2014,10:00,Key Largo,FL,Education,Marine Resources,25.14847,-80.36125,7,Whitmore Bight,no data,hardbottom,0-5 kts,no data,no data,no data,partly cloudy,NO,none,none,none,none,none,none,none,0%,no data,no data,no data,no data,no data,,
Email ,Jessica Dockery,7/9/2014,11:00,Key Largo,FL,Education,Marine Resources,25.14083,-80.31475,9,Higdons Reef,no data,patch reef,0-5 kts,no data,no data,no data,partly cloudy,NO,none,none,none,none,none,none,none,0%,no data,no data,no data,no data,no data,,
Email ,Tyler Stepanek,7/10/2014,14:00,Summerland Key,FL,Education,Order of the Arrow,24.69153,-81.02535,17,no data,Channel Marker 48,patch reef,no data,no data,no data,no data,cloudy,YES,paling,none,paling,none,none,none,none,1-10%,5,15,no data,no data,no data,,
Email ,Tyler Stepanek,7/11/2014,14:50,Summerland Key,FL,Education,Order of the Arrow,24.61762,-81.36312,10,Munson Rocks,no data,patch reef,10-15 kts,no data,no data,no data,partly cloudy,NO,none,none,none,none,none,none,none,0%,no data,no data,no data,no data,no data,Some disease on fan coral.,
In person,Cory Walter,7/13/2014,no data,Summerland Key,FL,Research,Mote Marine Laboratory,24.55182,-81.38751,no data,Outplant Site N,no data,patch reef,no data,no data,no data,no data,no data,YES,paling,none,paling,paling,none,none,none,1-10%,no data,no data,no data,no data,no data,,
Email ,Tyler Stepanek,7/14/2014,14:00,Summerland Key,FL,Education,Order of the Arrow,24.83625,-80.72832,10,no data,no data,patch reef,no data,no data,no data,no data,partly cloudy,YES,partial bleaching,none,Bleaching,Bleaching,none,none,none,1-10%,no data,no data,fire coral,no data,no data,,
Email ,Tyler Stepanek,7/15/2014,14:00,Summerland Key,FL,Education,Order of the Arrow,24.70292,-80.89450,20,Adelaide Baker Wreck,no data,patch reef,0-5 kts,no data,no data,no data,partly cloudy,YES,partial bleaching,paling,none,none,none,Bleaching,none,1-10%,15,18,no data,no data,no data,"Lots of branching coral covered in algae, though contains signs of new growth.",
Email ,Tyler Stepanek,7/15/2014,15:30,Summerland Key,FL,Education,Order of the Arrow,24.67037,-80.97460,24,no data,no data,patch reef,no data,no data,no data,no data,cloudy,NO,none,none,none,none,none,none,none,0%,no data,no data,no data,no data,no data,,
Email ,Cindy Lewis & Tom Bartlett,7/17/2014,11:00,Long Key,FL,Research,Keys Marine Lab,24.76632,-80.75245,35,Tennessee ROA,no data,reef,5-10 kts,90,89,87,clear,YES,paling,paling,partial bleaching,none,none,none,none,1-10%,35,18,no data,no data,no data,A cervicornis - a few looked pale but most looked great; D clivosa - a few colonies bleached very white (photos)others were pale; no disease observed,
Email ,Tyler Stepanek,7/18/2014,13:00,Summerland Key,FL,Education,Order of the Arrow,24.61745,-81.36982,no data,no data,no data,patch reef,no data,no data,no data,no data,clear,NO,none,none,none,none,none,none,none,0%,no data,no data,no data,no data,no data,,
Email ,Emma Tyson,7/18/2014,11:15,Key Largo,FL,Visitor,Marine Resources,25.11167,-80.30917,no data,Grecian Rocks,South End,mid-channel reef,5-10 kts,no data,85,85,partly cloudy,YES,Bleaching ,none,none,Bleaching,none,none,none,1-10%,4,4,fire coral,no data,no data,black band,
In person,Meaghan Johnson,7/20/2014,12:00,Big Pine Key,FL,Research,TNC,24.51594,-81.92484,no data,Man Key,no data,patch reef,no data,no data,no data,no data,no data,YES,paling,none,paling,paling,none,none,none,11-30%,no data,no data,no data,no data,no data,,
Email ,Tyler Stepanek,7/20/2014,13:40,Summerland Key,FL,Education,Order of the Arrow,24.26238,-80.62347,20,Alligator Reef,A1,patch reef,no data,no data,no data,no data,clear,YES,paling,paling,none,paling,none,none,none,11-30%,12,20,no data,no data,no data,Pictures in email to follow for this site.,
In person,Cory Walter,7/21/2014,no data,Summerland Key,FL,Research,Mote Marine Laboratory,24.52327,-81.51572,no data,Outplant Site D,no data,reef,no data,no data,no data,no data,no data,YES,paling,none,none,paling,none,none,none,1-10%,no data,no data,no data,no data,no data,Ssid,
In person,Cory Walter,7/21/2014,no data,Summerland Key,FL,Research,Mote Marine Laboratory,24.55229,-81.38380,no data,Outplant Site A,no data,reef,no data,no data,no data,no data,no data,NO,none,none,none,none,none,none,none,0%,no data,no data,no data,no data,no data,,
Email ,Ken Nedimyer,7/22/2014,12:00,Tavernier,FL,Research,Coral Restoration Foundation,24.71237,-80.94523,15,East Turtle Shoals,no data,mid-channel reef,5-10 kts,90,86,86,mostly cloudy,YES,partial bleaching,none,none,partial bleaching,none,none,none,1-10%,15,12,gorgonians,no data,no data,Minor bleaching on S. sidereal starting at the bottom.  Blotchy spots on some d. strigosa.  BBD on D strigosa and S. siderea,
Email ,Ken Nedimyer,7/22/2014,12:00,Tavernier,FL,Research,Coral Restoration Foundation,24.51368,-81.92520,10,Man Key,no data,patch reef,5-10 kts,90,88,88,clear,YES,partial bleaching,none,none,partial bleaching,none,none,none,1-10%,10,6,no data,no data,no data,"Minor bleaching o. annularis, paling on O. faveolata.  Most colonies still look good with no sign of heat stress.  BBD on several O. faveolata and S. siderea.",
In person,Cory Walter,7/23/2014,9:00,Summerland Key,FL,Research,Mote Marine Laboratory,24.53145,-81.48355,no data,Site C,no data,patch reef,no data,no data,no data,no data,no data,No,none,none,none,none,none,none,none,0%,no data,no data,no data,no data,no data,,
In person,Cory Walter,7/23/2014,11:00,Summerland Key,FL,Research,Mote Marine Laboratory,24.55262,-81.38171,no data,Site B,no data,patch reef,no data,no data,no data,no data,no data,No,none,none,none,none,none,none,none,0%,no data,no data,no data,no data,no data,,
Email ,Kerry Maxwell,7/25/2014,11:00,Marathon,FL,Research,Florida Fish and Wildlife (FWC),24.71250,-80.94585,20,mid channel patch off Grassy Key,no data,mid-channel reef,0-5 kts,no data,no data,no data,partly cloudy,YES,upper surface,none,partial bleaching,partial bleaching,none,none,none,1-10%,20,12,no data,no data,no data,I could look up temp from my computer if you want it. mostly CNAT and SSID,
Email ,Tyler Stepanek,7/30/2014,12:30,Summerland Key,FL,Education,Order of the Arrow,24.52450,-81.57860,12,no data,no data,patch reef,no data,88,no data,no data,partly cloudy,NO,none,none,none,none,none,none,none,0%,no data,no data,no data,no data,no data,,
Email ,Sarah Egner,7/30/2014,14:00,Key Largo,FL,Education,MRDF,25.13139,-80.29443,15,Key Largo Dry rocks,backside,reef,10-15 kts,no data,81,no data,no data,YES,Paling,no data,no data,no data,no data,no data,no data,no data,no data,no data,palythoa,no data,no data,small amount of paling on Palythoa,
Email ,Cindy Lewis & Tom Bartlett,8/1/2014,11:00,Long Key,FL,Research,Keys Marine Lab,24.76688,-80.72913,87,3 Peaks,no data,deep reef,0-5 kts,85,89,87,clear,YES,partial bleaching,none,none,partial bleaching,none,none,none,1-10%,87,70,gorgonians,no data,no data,Ssid partial bleaching; P natans - pale,
Email ,Cindy Lewis & Tom Bartlett,8/1/2014,13:00,Long Key,FL,Research,Keys Marine Lab,24.76332,-80.75575,37,Tennessee ROA,no data,reef,0-5 kts,85,89,87,clear,YES,partial bleaching,none,partial bleaching,partial bleaching,none,none,none,1-10%,37,30,gorgonians,no data,no data,S sid  bleached; D stri partial bleaching; ,
Email ,Tyler Stepanek,8/1/2014,11:00,Summerland Key,FL,Education,Order of the Arrow,24.64400,-81.07183,20,no data,no data,other/don't know,no data,no data,no data,no data,partly cloudy,NO,none,none,none,none,none,none,none,0%,no data,no data,no data,no data,no data,"Coral growing on a sunken barge, no bleaching.",
Email ,Tyler Stepanek,8/1/2014,16:00,Summerland Key,FL,Education,Order of the Arrow,24.70303,-81.89457,25,Adelaide Baker Wreck,no data,other/don't know,no data,no data,no data,no data,partly cloudy,YES,upper surface,none,partial bleaching,none,none,none,none,1-10%,20,25,no data,no data,no data,,
Email ,Tyler Stepanek,8/2/2014,15:45,Summerland Key,FL,Education,Order of the Arrow,24.66600,-81.07095,15,East Washerwoman Shoal,Marker 49,hardbottom,no data,no data,no data,no data,no data,YES,upper surface,partial bleaching,partial bleaching,none,none,none,none,31-50%,10,15,no data,no data,no data,,
Email ,Erich Bartels,8/4/2014,14:45,Summerland Key,FL,Research,Mote Marine Laboratory,24.58786,-81.43532,no data,mid-channel patch off Summerland,no data,mid-channel reef,no data,no data,no data,no data,no data,Yes,paling,paling,paling,paling,paling,none,paling,11-30%,no data,no data,fire coral,no data,no data,"Diploria, Cnat, Efas, Ofav, Mcav, Myceto, Ppor, Past, Odif, Ssid",
Email ,Erich Bartels,8/4/2014,15:15,Summerland Key,FL,Research,Mote Marine Laboratory,24.57990,-81.45328,no data,mid-channel patch off Summerland,no data,mid-channel reef,no data,no data,no data,no data,no data,Yes,paling,no data,no data,no data,no data,no data,no data,11-30%,no data,no data,fire coral,no data,no data,"Diploria, Cnat, Efas, Ofav, Mcav, Myceto, Ppor, Past, Odif, Ssid",
Email ,Tyler Stepanek,8/5/2014,13:30,Summerland Key,FL,Education,Order of the Arrow,24.57975,-81.56392,10,no data,no data,patch reef,no data,no data,no data,no data,no data,NO,none,none,none,none,none,none,none,0%,no data,no data,no data,no data,no data,,
Email ,Tyler Stepanek,8/5/2014,10:30,Summerland Key,FL,Education,Order of the Arrow,24.59882,-81.55935,8,no data,no data,patch reef,no data,no data,no data,no data,partly cloudy,YES,Bleaching ,Bleaching,Bleaching,Bleaching,none,none,none,31-50%,4,8,fire coral,no data,no data,Fire Coral was completely bleached,
Email ,Tyler Stepanek,8/5/2014,12:30,Summerland Key,FL,Education,Order of the Arrow,24.59695,-81.56210,8,no data,no data,patch reef,no data,no data,no data,no data,clear,YES,Bleaching ,Bleaching,Bleaching,Bleaching,none,none,none,31-50%,4,8,fire coral,no data,no data,Algae on top of brain corals. Bright lime-green coloration on some mound coral.,
Email ,Erich Bartels,8/5/2014,10:00,Summerland Key,FL,Research,Mote Marine Laboratory,24.45492,-81.85597,no data,Rock Key - buoy #5,no data,reef,no data,no data,no data,no data,no data,NO,none,none,none,none,none,none,none,0%,no data,no data,fire coral,no data,no data,,
Email ,Erich Bartels,8/5/2014,11:30,Summerland Key,FL,Research,Mote Marine Laboratory,24.47923,-81.71750,no data,W. Sambo - buoy #10,no data,reef,no data,no data,no data,no data,no data,Yes,paling,paling,none,partial bleaching,none,none,none,1-10%,no data,no data,fire coral,no data,no data,"Ofav, Past, Odif",
Email ,Erich Bartels,8/5/2014,14:00,Summerland Key,FL,Research,Mote Marine Laboratory,24.51628,-81.58486,no data,Hogwalla,no data,other/don't know,no data,no data,no data,no data,no data,NO,none,none,none,none,none,none,none,0%,no data,no data,fire coral,no data,no data,,
In person,Erich Bartels,8/5/2014,15:15,Summerland Key,FL,Research,Mote Marine Laboratory,24.52515,-81.53953,no data,Lions Den,no data,deep reef,no data,no data,no data,no data,no data,NO,none,none,none,none,none,none,none,0%,no data,no data,fire coral,no data,no data,,
In person,Cory Walter,8/6/2014,10:00,Summerland Key,FL,Research,Mote Marine Laboratory,24.54521,-81.40728,no data,Looe #13,no data,reef,no data,no data,no data,no data,no data,NO,none,none,none,none,none,none,none,0%,no data,no data,no data,no data,no data,Lots of Very Active BBD,
Email ,Cindy Lewis & Tom Bartlett,8/6/2014,18:00,Long Key,FL,Research,Keys Marine Lab,24.77828,-80.73590,20,Stag Party East,no data,patch reef,calm,88,87,87,clear,YES,paling,Bleaching,partial bleaching,partial bleaching,none,none,none,11-30%,20,15,fire coral,palythoa,gorgonians,"Bleached: P porites, Diploria spp, A cervicornis; 
Pale: A cerv, M cavernosa; Gorgonians: A americana, A anceps, Plexaura, Pterogorgia spp
Black band: D clivosa",
Email ,Erich Bartels,8/6/2014,9:45,Summerland Key,FL,Research,Mote Marine Laboratory,24.55251,-81.38348,no data,"Outplant Site ""A""",no data,patch reef,no data,no data,no data,no data,no data,NO,none,none,none,none,none,none,none,0%,no data,no data,fire coral,no data,no data,,
Email ,Erich Bartels,8/6/2014,14:45,Summerland Key,FL,Research,Mote Marine Laboratory,24.59097,-81.37857,no data,patch SW of Munson Reef,no data,mid-channel reef,no data,no data,no data,no data,no data,Yes,paling,paling,paling,partial bleaching,none,none,none,11-30%,no data,no data,fire coral,no data,no data,"Diploria, Cnat, Efas, Ofav, Mcav, Myceto, Ppor, Past, Odif, Ssid",
In person,Cory Walter,8/7/2014,9:00,Summerland Key,FL,Research,Mote Marine Laboratory,24.53725,-81.44683,60,Ace of Spades,no data,deep reef,5-10 kts,no data,no data,no data,no data,YES,paling,none,paling,paling,none,none,none,11-30%,63,45,no data,no data,no data,"Mcav, Ssid, Aaga, Past, Ppor",
In person,Cory Walter,8/7/2014,10:00,Summerland Key,FL,Research,Mote Marine Laboratory,24.56023,-81.50127,25,Wonderland,no data,mid-channel reef,5-10 kts,no data,no data,no data,no data,YES,paling,paling,paling,paling,paling,paling,none,11-30%,63,45,fire coral,palythoa,gorgonians,"Mcav, Ssid, Aaga, Past, Ppor, Oann, Ofav, Efas",
Email ,Kayla Nimmo,8/8/2014,15:00,Key West,FL,Research,Dry Tortugas NPS,24.61545,-82.94653,25,No name,no data,patch reef,0-5 kts,86,86,85,clear,YES,paling,paling,none,paling,none,none,none,1-10%,20,15,fire coral,no data,no data,"5% of cervicornis pale, 15% of sid pale",
In person,Cory Walter,8/8/2014,10:00,Summerland Key,FL,Research,Mote Marine Laboratory,24.56112,-81.50558,25,Near Wonderland,no data,mid-channel reef,5-10 kts,no data,no data,no data,no data,YES,paling,paling,paling,paling,none,paling,none,11-30%,no data,no data,fire coral,palythoa,gorgonians,Mmea and Oculina completely bleached.  BBD  Ssid paling,
In person,Cory Walter,8/8/2014,9:00,Summerland Key,FL,Research,Mote Marine Laboratory,24.53697,-81.43748,65,New Site,no data,deep reef,no data,no data,no data,no data,no data,YES,paling,paling,paling,paling,none,none,none,1-10%,65,40,fire coral,palythoa,no data,Usual,
In person,Cory Walter,8/8/2014,12:00,Summerland Key,FL,Research,Mote Marine Laboratory,24.58580,-81.58121,25,Maryland Rock Piles,no data,mid-channel reef,5-10 kts,no data,no data,no data,no data,YES,paling,paling,paling,paling,none,paling,none,11-30%,no data,no data,fire coral,palythoa,gorgonians,,
In person,Cory Walter,8/8/2014,14:00,Summerland Key,FL,Research,Mote Marine Laboratory,24.52327,-81.56143,25,new site,no data,mid-channel reef,5-10 kts,no data,no data,no data,no data,YES,paling,paling,paling,paling,none,none,none,1-10%,no data,no data,fire coral,palythoa,gorgonians,"Ssid, Sint, Past, Ppor",
In person,Cory Walter,8/8/2014,15:00,Summerland Key,FL,Research,Mote Marine Laboratory,24.54521,-81.40728,15,Japp Reef,no data,hardbottom,5-10 kts,no data,no data,no data,no data,YES,paling,paling,paling,paling,none,paling,none,76-100%,no data,no data,fire coral,palythoa,gorgonians,"Ssid, Past, Ppor",
In person,Cory Walter,8/8/2014,15:30,Summerland Key,FL,Research,Mote Marine Laboratory,24.56840,-81.45913,23,Odd Ball,no data,mid-channel reef,5-10 kts,no data,no data,no data,no data,YES,paling,paling,paling,paling,paling,paling,none,11-30%,no data,no data,fire coral,palythoa,gorgonians,"Ssid, Past, Ppor, Sint, and BBD on several colonies",
In person,Dusty Kemp,8/8/2014,12:00,Key Largo,FL,Research,UGA,25.22196,-80.21030,no data,Carysfort,no data,reef,no data,no data,no data,no data,no data,NO,none,none,none,none,none,none,none,0%,no data,no data,no data,no data,no data,,
Email ,Sarah Egner,8/8/2014,10:30,Key Largo,FL,Education,MRDF,25.13822,-80.28880,25,North North Dry Rocks,no data,reef,no data,no data,no data,no data,partly cloudy,YES,paling,none,paling,paling,none,none,none,1-10%,20,5,fire coral,palythoa,no data,,
Email ,Sarah Kazarnowicz,8/8/2014,10:00,Key Largo,FL,Education,Marine Resources,25.13822,-80.28880,30,North North Dry Rocks,no data,reef,10-15 kts,no data,no data,no data,partly cloudy,YES,paling,none,paling,none,none,none,none,0%,15,10,palythoa,no data,no data,,
Email ,Kayla Nimmo,8/9/2014,10:00,Key West,FL,Research,Dry Tortugas NPS,24.66814,-82.92585,65,Loggerhead Forest,no data,reef,0-5 kts,88,86.4,85,partly cloudy,YES,paling,paling,none,paling,none,none,none,1-10%,65,45,fire coral,palythoa,no data,"approx. 15% of Orbicella Fav, 100% of Sid sid, 40% of sid rad, 50% of Palythoa, 25% of Millipore, 25% of cavernosa, and 50% of agaricia agaricites (2 of 4 colonies)showed signs of paling.  No bleaching was observed.",
Email ,Kayla Nimmo,8/9/2014,15:00,Key West,FL,Research,Dry Tortugas NPS,24.63503,-82.92137,8,Little Africa,no data,patch reef,0-5 kts,88,86.5,85,partly cloudy,YES,paling,none,none,paling,none,none,none,no data,no data,no data,fire coral,palythoa,no data,"Approx. 35% of sid sid , 1% of favolata, 50% of fire coral, 100% of agaricia agaricites (2 of 2 colonies) showed signs of paling",
Email ,Kayla Nimmo,8/9/2014,17:00,Key West,FL,Research,Dry Tortugas NPS,24.62355,-82.94247,20,Windjammer,no data,other/don't know,calm,88,86.5,85,clear,YES,paling,none,none,paling,none,none,none,no data,no data,no data,fire coral,palythoa,no data,"Palythoa pale 15%, fire coral pale 15%, sid sid pale 25%",
In person,Dusty Kemp,8/9/2014,13:00,Key Largo,FL,Research,UGA,25.01052,-80.37251,no data,Molassas,no data,reef,no data,no data,no data,no data,no data,NO,none,none,none,none,none,none,none,0%,no data,no data,no data,no data,no data, ,
Email ,Kayla Nimmo,8/10/2014,15:00,Key West,FL,Research,Dry Tortugas NPS,24.70241,-82.79955,14,Acropora thicket NOAA site 1,no data,other/don't know,calm,90,86,85,partly cloudy,YES,paling,Bleaching,none,paling,none,none,none,1-10%,14,9,fire coral,palythoa,no data,,
In person,Ann Shulien,8/10/2014,10:00,Key West,FL,Dive Industry,Fury Watersports,24.60871,-81.88946,no data,Cottrell Key,no data,inshore,no data,no data,no data,no data,no data,YES,paling,no data,no data,no data,no data,no data,no data,no data,no data,no data,no data,no data,no data, ,
Email ,Kayla Nimmo,8/10/2014,7:00,Key West,FL,Research,Dry Tortugas NPS,24.62828,-82.87458,8,Moat wall,no data,other/don't know,calm,80,85,85,clear,YES,paling,none,none,paling,none,none,none,1-10%,8,no data,fire coral,palythoa,no data,"Note: Observations were made from the surface; not from in the water Inside the moat:  Sid rad pale 100%Outside the moat: fire coral pale 100%, Palythoa pale 25%",
In person,Cory Walter,8/12/2014,12:30,Summerland Key,FL,Research,Mote Marine Laboratory,24.54521,-81.40728,23,Looe,no data,mid-channel reef,5-10 kts,no data,no data,no data,no data,NO,none,none,none,none,none,none,none,0%,no data,no data,fire coral,palythoa,gorgonians,,
Facebook,Ann Davis,8/12/2014,10:00,Key Largo,FL,Education,Marine Resources,25.03530,-80.34730,no data,French,no data,other/don't know,no data,no data,no data,no data,no data,NO,none,none,none,none,none,none,none,0%,no data,no data,no data,no data,no data, ,
Facebook,Ann Davis,8/12/2014,11:00,Key Largo,FL,Education,Marine Resources,25.13633,-80.28932,no data,North Dry Rocks,no data,patch reef,no data,no data,no data,no data,no data,YES,paling,no data,no data,no data,no data,no data,no data,no data,no data,no data,no data,no data,no data, ,
Facebook,Ann Davis,8/12/2014,12:00,Key Largo,FL,Education,Marine Resources,25.11167,-80.30917,no data,Grecian Rocks,no data,patch reef,no data,no data,no data,no data,no data,YES,paling,no data,no data,no data,no data,no data,no data,no data,no data,no data,no data,no data,no data, ,
Email ,Jessica Dockery,8/13/2014,17:00,Key Largo,FL,Education,Marine Resources,25.13963,-80.29403,no data,Key Largo Horseshoe,no data,patch reef,no data,no data,no data,no data,no data,YES,paling,none,none,paling,none,none,none,no data,no data,no data,no data,palythoa,no data,,
Email ,Cindy Lewis & Tom Bartlett,8/13/2014,18:00,Long Key,FL,Research,Keys Marine Lab,25.27417,-80.21053,20,Pillar Coral Forest,no data,patch reef,0-5 kts,85,87,87,clear,YES,Bleaching ,Bleaching,Bleaching,none,none,Bleaching,none,11-30%,20,15,fire coral,palythoa,gorgonians,,
Email ,Frank Wasson,8/13/2014,no data,Key West,FL,Dive Industry,Spree,23.59090,-79.62067,205,Nacho Hole,no data,other/don't know,calm,95,91,88,clear,YES,paling,none,paling,paling,none,none,none,76-100%,50,40,fire coral,gorgonians,no data,,
Email ,Kayla Nimmo,8/13/2014,12:00,Key West,FL,Research,Dry Tortugas NPS,24.66373,-82.93120,57,Loggerhead Forest,SouthWest edge,reef,calm,90,86,85,partly cloudy,YES,paling,none,none,paling,none,none,none,1-10%,55,40,fire coral,palythoa,no data,,
Email ,Frank Wasson,8/14/2014,no data,Key West,FL,Dive Industry,Spree,23.91280,-79.83502,55,Sistine Chapel,no data,other/don't know,calm,95,91,88,clear,YES,paling,none,paling,paling,none,none,none,76-100%,50,40,fire coral,gorgonians,no data, ,
Email ,Frank Wasson,8/15/2014,no data,Key West,FL,Dive Industry,Spree,23.88983,-79.79198,33,Silversides,no data,other/don't know,calm,95,91,88,clear,YES,paling,none,paling,paling,none,none,none,76-100%,120,25,fire coral,gorgonians,no data,,
Email ,Kayla Nimmo,8/17/2014,10:00,Key West,FL,Research,Sea Eagle,24.45046,-81.73319,130,Vandenberg,5,other/don't know,5-10 kts,88,85,85,partly cloudy,YES,paling,no data,no data,no data,no data,no data,no data,no data,no data,no data,fire coral,no data,no data, ,
Email ,Kayla Nimmo,8/18/2014,17:00,Key West,FL,Research,Fury Watersports,24.45350,-81.86000,15,Rock Key,Middle portion of reef,hardbottom,0-5 kts,92,85,85,partly cloudy,YES,partial bleaching,partial bleaching,paling,paling,none,none,none,11-30%,15,3,fire coral,palythoa,no data,,
Email ,Jeffrey Renchen,8/18/2014,14:00,Marathon,FL,Research,Florida Fish and Wildlife (FWC),24.66345,-81.07863,35,Washer Woman,no data,patch reef,10-15 kts,no data,no data,89,clear,YES,Bleaching ,none,Bleaching,Bleaching,none,none,none,11-30%,35,25,fire coral,no data,no data, ,
Email ,Danielle Morley,8/19/2014,12:30,Marathon,FL,Research,Florida Fish and Wildlife (FWC),24.72330,-80.90890,37,East Turtle Shoals,no data,patch reef,0-5 kts,no data,88,88,clear,YES,partial bleaching,none,Bleaching,partial bleaching,none,none,none,31-50%,40,35,fire coral,no data,no data, ,
Email ,Karen Neely,8/19/2014,no data,Big Pine Key,FL,Research,Florida Fish and Wildlife (FWC),25.27445,-80.21038,15,United States,no data,other/don't know,no data,no data,no data,no data,no data,YES,partial bleaching,partial bleaching,none,none,none,none,none,11-30%,10,15,no data,no data,no data, ,
Email ,Celia Hitchins,8/19/2014,no data,Marathon,FL,Research,Monroe County,24.56950,-81.65267,8,Boca Chica nearshore patch reef,nearshore patch,patch reef,0-5 kts,90,no data,no data,clear,YES,partial bleaching,none,none,Bleaching,none,none,none,51-75%,8,4,fire coral,palythoa,no data,,
Email ,Jeff Kelly,8/20/2014,no data,Big Pine Key,FL,Resident,Panagero,24.60913,-81.40205,13,United States,no data,patch reef,0-5 kts,87,87,87,partly cloudy,YES,Bleaching ,none,Bleaching,none,none,Bleaching,none,76-100%,13,13,no data,no data,no data, ,
Email ,Kayla Nimmo,8/20/2014,15:00,Key West,FL,Research,Dry Tortugas NPS,24.64312,-82.93073,38,Temptation Rock,no data,patch reef,calm,90,86,85,partly cloudy,YES,paling,paling,paling,paling,none,none,none,1-10%,38,25,fire coral,palythoa,no data,,
Email ,Cindy Lewis & Tom Bartlett,8/20/2014,12:00,Long Key,FL,Research,Keys Marine Lab,24.71732,-80.84237,38,Long Key Ledge,no data,reef,5-10 kts,85,86,87,clear,YES,Bleaching ,none,paling,paling,none,none,none,1-10%,38,30,fire coral,no data,no data, ,
In person,Cory Walter,8/20/2014,10:00,Summerland Key,FL,Research,Mote Marine Laboratory,24.58710,-81.23656,47,Off Bahia Honda,no data,forereef,no data,no data,no data,87,no data,YES,partial bleaching,paling,paling,partial bleaching,none,partial bleaching,none,51-75%,no data,no data,fire coral,palythoa,no data,,
In person,Cory Walter,8/20/2014,11:30,Summerland Key,FL,Research,Mote Marine Laboratory,24.60002,-81.20620,34,Off Bahia Honda,no data,other/don't know,no data,no data,no data,no data,no data,YES,paling,paling,paling,paling,partial bleaching,partial bleaching,none,51-75%,35,no data,fire coral,palythoa,no data,,
In person,Cory Walter,8/20/2014,12:52,Summerland Key,FL,Research,Mote Marine Laboratory,24.60159,-81.25002,23,Off Bahia Honda,no data,other/don't know,no data,no data,no data,no data,no data,YES,partial bleaching,Bleaching,paling,partial bleaching,none,paling,none,51-75%,26,no data,fire coral,palythoa,no data,,
In person,Cory Walter,8/20/2014,13:50,Summerland Key,FL,Research,Mote Marine Laboratory,24.59688,-81.26452,25,Off Bahia Honda,no data,other/don't know,no data,no data,no data,no data,no data,YES,paling,Bleaching,paling,paling,none,none,none,51-75%,no data,no data,no data,no data,no data, ,
Email ,Elissa Connolly-Randazzo,8/21/2014,15:15,Key West,FL,Research,Dry Tortugas NPS,24.64312,-82.93073,38,Temptation Rock,no data,patch reef,5-10 kts,85,85,85,mostly cloudy,YES,paling,paling,paling,paling,none,none,none,11-30%,38,25,fire coral,palythoa,no data,,
Email ,Karen Neely,8/22/2014,no data,Big Pine Key,FL,Research,Florida Fish and Wildlife (FWC),24.61362,-82.87085,20,United States,Palmata Patch /  Magic Castles,other/don't know,calm,no data,no data,no data,clear,YES,partial bleaching,partial bleaching,none,none,none,none,none,31-50%,6,20,fire coral,palythoa,no data,,
Email ,Colin Foord,8/22/2014,10:00,Summerland Key,FL,Resident,no data,24.52437,-81.63489,25,no data,no data,mid-channel reef,no data,no data,no data,no data,no data,YES,Bleaching ,no data,no data,no data,no data,no data,no data,no data,no data,no data,no data,no data,no data, ,
Email ,Cindy Lewis & Tom Bartlett,8/23/2014,12:00,Long Key,FL,Research,Keys Marine Lab,24.74603,-80.76643,95,Snapper Slope,no data,deep reef,5-10 kts,85,86,88,clear,NO,none,none,none,none,none,none,none,0%,no data,no data,no data,no data,no data, ,
Email ,Cindy Lewis & Tom Bartlett,8/23/2014,12:00,Long Key,FL,Research,Keys Marine Lab,24.73108,-80.83055,25,Long Key Bridge Rubble,no data,other/don't know,5-10 kts,85,86,88,clear,YES,Bleaching ,none,Bleaching,Bleaching,none,none,none,1-10%,25,18,fire coral,gorgonians,no data, ,
Email ,Kayla Nimmo,8/23/2014,13:30,Key West,FL,Research,Dry Tortugas NPS,24.60928,-82.95172,57,Elissa's Tavern,no data,patch reef,calm,90,87.6,85,partly cloudy,YES,paling,paling,paling,paling,none,none,none,1-10%,56,28,fire coral,palythoa,no data,,
Email ,Elissa Connolly-Randazzo,8/23/2014,14:40,Key West,FL,Research,Dry Tortugas NPS,24.62355,-82.94247,20,Windjammer,no data,other/don't know,calm,90,87,85,partly cloudy,YES,paling,partial bleaching,paling,paling,none,none,none,1-10%,20,no data,fire coral,palythoa,no data,,
Email ,Chris Putko,8/23/2014,10:00,Key West,FL,Resident,21ft center console,24.67083,-81.94256,20,Newgrounds,no data,patch reef,5-10 kts,89,88,no data,clear,YES,partial bleaching,partial bleaching,none,partial bleaching,none,none,partial bleaching,51-75%,25,15,no data,no data,no data, ,
Email ,Cindy Lewis & Tom Bartlett,8/24/2014,10:00,Long Key,FL,Research,Keys Marine Lab,24.70682,-80.86413,70,Lost Ledge,no data,deep reef,5-10 kts,85,87,87,clear,NO,none,none,none,none,none,none,none,0%,no data,no data,no data,no data,no data, ,
Email ,Cindy Lewis & Tom Bartlett,8/24/2014,12:00,Long Key,FL,Research,Keys Marine Lab,24.70928,-80.87017,30,Lost Ledge,no data,reef,5-10 kts,85,87,87,clear,YES,Bleaching ,none,Bleaching,Bleaching,none,none,none,1-10%,30,25,fire coral,palythoa,gorgonians,,
Email ,Cindy Lewis & Tom Bartlett,8/24/2014,12:00,Long Key,FL,Research,Keys Marine Lab,24.72505,-80.92025,25,Volcano,no data,patch reef,5-10 kts,85,87,87,clear,YES,Bleaching ,none,Bleaching,Bleaching,none,paling,none,31-50%,25,12,fire coral,palythoa,gorgonians,,
Email ,Kayla Nimmo,8/24/2014,10:00,Key West,FL,Research,Dry Tortugas NPS,24.68682,-82.90733,55,Davis Rock,no data,patch reef,calm,90,87,85,clear,YES,paling,paling,paling,paling,none,none,none,1-10%,55,30,fire coral,palythoa,no data,,
Email ,Kayla Nimmo,8/24/2014,12:00,Key West,FL,Research,Dry Tortugas NPS,24.66928,-82.90847,25,Offramp,no data,patch reef,calm,90,87,85,partly cloudy,YES,paling,paling,paling,paling,none,none,none,1-10%,25,10,fire coral,palythoa,no data,,
Email ,Kayla Nimmo,8/24/2014,15:30,Key West,FL,Research,Dry Tortugas NPS,24.64723,-82.87175,20,Middle Ground,no data,patch reef,calm,90,86,85,partly cloudy,YES,paling,partial bleaching,paling,paling,none,none,none,1-10%,20,12,fire coral,palythoa,no data,,
Email ,Steven Harris,8/24/2014,14:30,Key Largo,FL,Education,Quixotic / BSA,24.93167,-80.54833,18,"Hens and Chicks, Tavernier, FL",NE shallow spot,reef,5-10 kts,92,90,no data,clear,YES,Bleaching ,none,Bleaching,Bleaching,none,none,none,11-30%,18,6,no data,no data,no data, ,
Email ,Shelli Tallacksen,8/24/2014,12:00,Key West,FL,Resident,Banana Boat/Personal Recreational,24.52028,-81.97403,8,Ocean Side of Woman Key ,near shore,hardbottom,5-10 kts,90,89,89,clear,YES,Bleaching ,none,Bleaching,partial bleaching,none,none,none,51-75%,8,5,gorgonians,no data,no data, ,
Email ,SEAFAN,8/24/2014,12:00,Miami,FL,Education,Personal,24.50060,-81.62955,20,Pelican Shoal,no data,reef,no data,no data,no data,no data,no data,YES,upper surface,upper surface,upper surface,upper surface,none,none,none,1-10%,no data,no data,no data,no data,no data, ,
Email ,Karen Neely,8/25/2014,no data,Big Pine Key,FL,Research,Florida Fish and Wildlife (FWC),24.54530,-81.41033,no data,United States,Looe,reef,no data,no data,no data,no data,no data,YES,paling,none,paling,paling,none,none,none,1-10%,5,20,fire coral,palythoa,no data,,
Email ,Danielle Morley,8/25/2014,14:10,Marathon,FL,Research,Florida Fish and Wildlife (FWC),24.55203,-81.69690,9,no data,no data,patch reef,0-5 kts,no data,89,89,partly cloudy,YES,Bleaching ,none,Bleaching,Bleaching,none,none,none,76-100%,9,4,fire coral,gorgonians,no data,,
Email ,Danielle Morley,8/25/2014,14:10,Marathon,FL,Research,Florida Fish and Wildlife (FWC),24.49578,-81.70167,25,no data,no data,patch reef,0-5 kts,no data,89,89,partly cloudy,YES,Bleaching ,none,Bleaching,Bleaching,none,none,none,51-75%,25,20,fire coral,gorgonians,no data,,
Email ,Danielle Morley,8/25/2014,11:45,Marathon,FL,Research,Florida Fish and Wildlife (FWC),24.48608,-81.69658,28,no data,no data,patch reef,0-5 kts,no data,89,89,partly cloudy,YES,Bleaching ,none,none,Bleaching,none,none,none,76-100%,28,27,fire coral,gorgonians,no data,,
Email ,Danielle Morley,8/25/2014,10:54,Marathon,FL,Research,Florida Fish and Wildlife (FWC),24.47940,-81.66923,94,no data,no data,deep reef,0-5 kts,no data,87,88,partly cloudy,NO,none,none,none,none,none,none,none,0%,no data,no data,no data,no data,no data, ,
Email ,Vanessa McDonough,8/25/2014,12:00,Homestead,FL,Research,Biscayne National Park,25.30500,-80.21368,15,unnamed site,no data,patch reef,5-10 kts,91,88,88,partly cloudy,YES,partial bleaching,Bleaching,none,partial bleaching,none,none,none,51-75%,8,5,no data,no data,no data, ,
In person,Cory Walter,8/25/2014,9:00,Summerland Key,FL,Research,Mote Marine Laboratory,24.55133,-81.80830,10,no data,no data,patch reef,no data,no data,no data,no data,no data,YES,Bleaching ,Bleaching,Bleaching,Bleaching,none,Bleaching,none,76-100%,no data,no data,no data,no data,no data, ,
Email ,Chris Munia,8/25/2014,12:00,Miami,FL,Research,Dry Tortugas NPS,24.65925,-82.87847,40,None,no data,patch reef,5-10 kts,88,87,85,clear,YES,paling,partial bleaching,paling,paling,none,none,none,1-10%,35,20,fire coral,palythoa,no data,,
Email ,Katie Moore,8/25/2014,10:00,Key Largo,FL,Dive Industry,Glass Bottom Boat,25.01052,-80.37251,25,Molassas,no data,reef,no data,no data,no data,no data,no data,YES,partial bleaching,Bleaching,paling,none,none,none,none,no data,no data,no data,no data,no data,no data, ,
Email ,Jeffrey Renchen,8/25/2014,13:00,Marathon,FL,Research,Florida Fish and Wildlife (FWC),24.55162,-81.69532,18,Western Sambos,no data,inshore,no data,no data,no data,no data,no data,YES,Bleaching ,none,upper surface,Bleaching,none,none,none,no data,no data,no data,no data,no data,no data, ,
Email ,Bob Fletcher,8/25/2014,no data,Summerland Key,FL,Resident,The Catch,24.59987,-81.46050,15,Near Key Lois,no data,hardbottom,no data,no data,no data,no data,no data,YES,Bleaching ,no data,no data,no data,no data,no data,no data,31-50%,no data,no data,no data,no data,no data, ,
In person,Cory Walter,8/26/2014,10:00,Summerland Key,FL,Research,Mote Marine Laboratory,24.55189,-81.38653,25,no data,no data,patch reef,no data,no data,no data,no data,no data,YES,partial bleaching,paling,paling,partial bleaching,Bleaching,Bleaching,none,76-100%,no data,no data,no data,no data,no data, ,
In person,Cory Walter,8/26/2014,11:20,Summerland Key,FL,Research,Mote Marine Laboratory,24.55124,-81.38984,25,no data,no data,patch reef,no data,no data,no data,no data,no data,YES,partial bleaching,partial bleaching,partial bleaching,partial bleaching,partial bleaching,partial bleaching,none,76-100%,no data,no data,no data,no data,no data, ,
In person,Cory Walter,8/26/2014,12:25,Summerland Key,FL,Research,Mote Marine Laboratory,24.55268,-81.38228,26,no data,no data,patch reef,no data,no data,no data,no data,no data,YES,partial bleaching,partial bleaching,partial bleaching,partial bleaching,partial bleaching,partial bleaching,none,51-75%,no data,no data,no data,no data,no data, ,
In person,Cory Walter,8/27/2014,10:30,Summerland Key,FL,Research,Mote Marine Laboratory,24.54775,-81.45679,25,no data,no data,inshore,no data,no data,no data,no data,no data,YES,Bleaching ,partial bleaching,Bleaching,Bleaching,Bleaching,Bleaching,none,76-100%,no data,no data,no data,no data,no data, ,
Email ,Trudy Ferraro,8/27/2014,no data,Key Largo,FL,Research,FPS Pennekamp,25.07660,-80.38545,8,Mosquito Banks north,RHA 24,patch reef,5-10 kts,no data,89,no data,partly cloudy,YES,Bleaching ,none,none,Bleaching,none,none,none,51-75%,8,no data,fire coral,gorgonians,no data,,
Email ,Trudy Ferraro,8/27/2014,no data,Key Largo,FL,Research,FPS Pennekamp,25.07407,-80.38545,13,Mosquito Banks north,RHA 25,patch reef,5-10 kts,no data,86,no data,partly cloudy,YES,Bleaching ,none,none,Bleaching,none,none,none,31-50%,13,no data,fire coral,gorgonians,no data,,
Email ,Trudy Ferraro,8/27/2014,no data,Key Largo,FL,Research,FPS Pennekamp,25.07108,-80.39080,9,Mosquito Banks north,RHA 25,patch reef,5-10 kts,no data,87,no data,partly cloudy,YES,Bleaching ,none,none,Bleaching,Bleaching,none,none,31-50%,9,no data,fire coral,gorgonians,no data,,
Email ,Trudy Ferraro,8/27/2014,no data,Key Largo,FL,Research,FPS Pennekamp,25.07238,-80.39297,10,Mosquito Banks north,RHA 29,patch reef,5-10 kts,no data,89,no data,partly cloudy,YES,partial bleaching,none,none,partial bleaching,Bleaching,none,none,31-50%,10,no data,fire coral,gorgonians,no data,,
Email ,Trudy Ferraro,8/27/2014,no data,Key Largo,FL,Research,FPS Pennekamp,25.10940,-80.34535,10,Mosquito Banks north,RHA 32,patch reef,10-15 kts,no data,86,no data,partly cloudy,YES,partial bleaching,none,none,partial bleaching,none,Bleaching,none,31-50%,10,no data,fire coral,gorgonians,no data, ,
Email ,Trudy Ferraro,8/27/2014,no data,Key Largo,FL,Research,FPS Pennekamp,25.10337,-80.34414,10,Cannon Patch,south,patch reef,10-15 kts,no data,86,no data,partly cloudy,YES,Bleaching ,Bleaching,Bleaching,Bleaching,none,none,none,51-75%,10,no data,fire coral,gorgonians,no data,,
Email ,Danielle Morley,8/27/2014,10:08am,Marathon,FL,Research,Florida Fish and Wildlife (FWC),24.69241,-80.90294,65,no data,no data,hardbottom,10-15 kts,no data,no data,87,partly cloudy,YES,partial bleaching,none,none,partial bleaching,partial bleaching,none,none,31-50%,no data,no data,gorgonians,no data,no data, ,
Email ,Danielle Morley,8/27/2014,10:08am,Marathon,FL,Research,Florida Fish and Wildlife (FWC),24.70920,-80.82795,96,no data,no data,hardbottom,10-15 kts,no data,no data,87,partly cloudy,YES,partial bleaching,none,none,partial bleaching,none,none,none,11-30%,96,86,no data,no data,no data, ,
Email ,Bob Fletcher,8/28/2014,no data,Summerland Key,FL,Resident,The Catch,24.77630,-81.54653,15,East of Sawyer,no data,inshore,no data,no data,no data,no data,no data,YES,partial bleaching,no data,no data,no data,no data,no data,no data,no data,no data,no data,no data,no data,no data, ,
In person,Cory Walter,8/29/2014,9:10,Summerland Key,FL,Research,Mote Marine Laboratory,24.54686,-81.40279,16,FRRP 2387,no data,reef,no data,no data,no data,no data,no data,YES,paling,paling,paling,none,none,Bleaching,none,no data,no data,no data,fire coral,palythoa,gorgonians,,
In person,Cory Walter,8/29/2014,9:48,Summerland Key,FL,Research,Mote Marine Laboratory,24.54891,-81.41481,22,FRRP Strat #1,no data,other/don't know,no data,no data,no data,no data,no data,YES,paling,paling,paling,paling,none,paling,none,no data,no data,no data,fire coral,palythoa,gorgonians,,
In person,Cory Walter,8/29/2014,10:47,Summerland Key,FL,Research,Mote Marine Laboratory,24.55245,-81.38409,19,FRRP Strat #2 (Outplant Site A),no data,other/don't know,no data,no data,no data,no data,no data,YES,paling,paling,paling,paling,none,paling,none,31-50%,no data,no data,fire coral,palythoa,gorgonians,,
In person,Cory Walter,8/29/2014,11:39,Summerland Key,FL,Research,Mote Marine Laboratory,24.56537,-81.39330,25,FRRP 1194,no data,other/don't know,no data,no data,no data,no data,no data,YES,partial bleaching,partial bleaching,partial bleaching,partial bleaching,paling,paling,paling,76-100%,no data,no data,fire coral,palythoa,gorgonians,,
In person,Cory Walter,8/29/2014,14:42,Summerland Key,FL,Research,Mote Marine Laboratory,24.59578,-81.39539,11,FRRP 2362,no data,hardbottom,no data,no data,no data,no data,no data,YES,partial bleaching,partial bleaching,partial bleaching,partial bleaching,paling,partial bleaching,paling,76-100%,no data,no data,fire coral,palythoa,gorgonians,,
In person,Cory Walter,9/3/2014,8:59,Summerland Key,FL,Research,Mote Marine Laboratory,24.55857,-81.35399,25,FRRP 2385,no data,other/don't know,no data,no data,no data,no data,no data,YES,partial bleaching,partial bleaching,partial bleaching,partial bleaching,paling,partial bleaching,paling,76-100%,no data,no data,fire coral,palythoa,gorgonians,,
In person,Cory Walter,9/3/2014,10:00,Summerland Key,FL,Research,Mote Marine Laboratory,24.57461,-81.31872,26,FRRP 2329,no data,other/don't know,no data,no data,no data,no data,no data,YES,partial bleaching,partial bleaching,partial bleaching,partial bleaching,paling,partial bleaching,paling,76-100%,no data,no data,fire coral,palythoa,gorgonians,,
In person,Cory Walter,9/3/2014,10:00,Summerland Key,FL,Research,Mote Marine Laboratory,24.57422,-81.32815,17,FRRP 1198,no data,other/don't know,no data,no data,no data,no data,no data,YES,paling,partial bleaching,partial bleaching,partial bleaching,paling,partial bleaching,paling,31-50%,no data,no data,fire coral,palythoa,gorgonians,,
In person,Cory Walter,9/3/2014,12:53,Summerland Key,FL,Research,Mote Marine Laboratory,24.56310,-81.40054,24,FRRP Strat #1,no data,other/don't know,no data,no data,no data,no data,no data,YES,Bleaching ,partial bleaching,partial bleaching,Bleaching,paling,partial bleaching,paling,76-100%,no data,no data,fire coral,gorgonians,no data,,
In person,Cory Walter,9/3/2014,14:00,Summerland Key,FL,Research,Mote Marine Laboratory,24.55336,-81.43310,29,FRRP 1206,no data,other/don't know,no data,no data,no data,no data,no data,YES,partial bleaching,partial bleaching,partial bleaching,Bleaching,paling,partial bleaching,paling,76-100%,no data,no data,fire coral,gorgonians,no data,,
In person,Cory Walter,9/3/2014,14:37,Summerland Key,FL,Research,Mote Marine Laboratory,24.56946,-81.45930,21,FRRP 2361,no data,other/don't know,no data,no data,no data,no data,no data,YES,Bleaching ,partial bleaching,partial bleaching,Bleaching,paling,partial bleaching,paling,76-100%,no data,no data,fire coral,gorgonians,no data,"Bleached and dead gorgos again.  Most Past are bleached and
noted some recent mortality on the Past",
In person,Cory Walter,9/4/2014,11:15,Summerland Key,FL,Research,Mote Marine Laboratory,24.53024,-81.47241,42,FRRP 2412,no data,other/don't know,no data,no data,no data,no data,no data,YES,partial bleaching,partial bleaching,Bleaching,Bleaching,none,Bleaching,paling,76-100%,no data,no data,fire coral,palythoa,gorgonians,Some gorgo and sponge mortality,
In person,Cory Walter,9/4/2014,12:19,Summerland Key,FL,Research,Mote Marine Laboratory,24.53304,-81.46854,42,FRRP 2413,no data,other/don't know,no data,no data,no data,no data,no data,YES,partial bleaching,none,paling,partial bleaching,none,none,none,76-100%,no data,no data,fire coral,palythoa,gorgonians,Mostly bare rock,
In person,Cory Walter,9/4/2014,13:05,Summerland Key,FL,Research,Mote Marine Laboratory,24.53387,-81.47144,17,FRRP 2407,no data,other/don't know,no data,no data,no data,no data,no data,YES,partial bleaching,Bleaching,paling,partial bleaching,none,none,none,76-100%,no data,no data,fire coral,palythoa,gorgonians,Acer bleached, 
In person,Cory Walter,9/4/2014,13:35,Summerland Key,FL,Research,Mote Marine Laboratory,24.53122,-81.48428,21,FRRP 1202,no data,other/don't know,no data,no data,no data,no data,no data,YES,Bleaching ,Bleaching,Bleaching,Bleaching,none,none,none,76-100%,no data,no data,fire coral,palythoa,gorgonians,Acer bleached...outplants,
In person,Cory Walter,9/4/2014,14:20,Summerland Key,FL,Research,Mote Marine Laboratory,24.54324,-81.47056,25,FRRP 1202,no data,other/don't know,no data,no data,no data,no data,no data,YES,partial bleaching,Bleaching,Bleaching,Bleaching,none,Bleaching,none,76-100%,no data,no data,fire coral,palythoa,gorgonians,Acer bleached...outplants,
Email ,Kayla Nimmo,9/4/2014,no data,Key West,FL,Research,Dry Tortugas NPS,24.68238,-82.92620,64,Toiletbowl,no data,patch reef,calm,no data,85,84,partly cloudy,YES,paling,none,paling,paling,none,none,none,1-10%,45,64,fire coral,palythoa,no data,"Palythoa, SSID, MMEA, MCAV, SINT, Oculina frigilis, AAGA, MFRA, and CNAT paling.  one colony of MCAV had black band",
In person,Cory Walter,9/5/2014,9:15,Summerland Key,FL,Research,Mote Marine Laboratory,24.53019,-81.47736,42,FRRP 2406,no data,other/don't know,no data,no data,no data,no data,no data,YES,Bleaching ,partial bleaching,Bleaching,paling,Bleaching,Bleaching,none,76-100%,no data,no data,fire coral,palythoa,gorgonians,"A shallow dive at Hens and Chicks, water was quite warm.",
In person,Cory Walter,9/5/2014,9:50,Summerland Key,FL,Research,Mote Marine Laboratory,24.52625,-81.50417,42,FRRP 2384,no data,other/don't know,no data,no data,no data,no data,no data,YES,partial bleaching,Bleaching,partial bleaching,Bleaching,Bleaching,Bleaching,none,76-100%,no data,no data,fire coral,palythoa,gorgonians,,
In person,Cory Walter,9/5/2014,10:44,Summerland Key,FL,Research,Mote Marine Laboratory,24.52216,-81.52050,23,FRRP 1201,no data,other/don't know,no data,no data,no data,no data,no data,YES,Bleaching ,Bleaching,partial bleaching,Bleaching,Bleaching,Bleaching,partial bleaching,76-100%,no data,no data,fire coral,palythoa,gorgonians,Gorgo mortality,
In person,Cory Walter,9/5/2014,11:30,Summerland Key,FL,Research,Mote Marine Laboratory,24.52203,-81.52268,16,FRRP 1196,no data,other/don't know,no data,no data,no data,no data,no data,YES,Bleaching ,Bleaching,Bleaching,Bleaching,Bleaching,Bleaching,partial bleaching,76-100%,no data,no data,fire coral,palythoa,gorgonians,Gorgo mortality,
In person,Cory Walter,9/5/2014,12:30,Summerland Key,FL,Research,Mote Marine Laboratory,24.52701,-81.54655,18,FRRP 2398,no data,other/don't know,no data,no data,no data,no data,no data,YES,Bleaching ,Bleaching,Bleaching,Bleaching,Bleaching,Bleaching,partial bleaching,76-100%,no data,no data,fire coral,palythoa,gorgonians,,
In person,Cory Walter,9/5/2014,13:50,Summerland Key,FL,Research,Mote Marine Laboratory,24.52700,-81.55822,18,FRRP 1205,no data,other/don't know,no data,no data,no data,no data,no data,YES,partial bleaching,Bleaching,partial bleaching,Bleaching,Bleaching,Bleaching,partial bleaching,76-100%,no data,no data,fire coral,palythoa,gorgonians,,
Email ,Cindy Lewis & Karen Neely,9/5/2014,11:00,Long Key,FL,Research,Keys Marine Lab,24.45688,-81.89728,35,Sand Key North,no data,patch reef,0-5 kts,85,86,86,clear,YES,Bleaching ,Bleaching,Bleaching,Bleaching,Bleaching,Bleaching,Bleaching,51-75%,35,25,fire coral,palythoa,gorgonians,,
Email ,Cindy Lewis & Karen Neely,9/5/2014,11:30,Long Key,FL,Research,Keys Marine Lab,24.45228,-81.87692,25,Sand Key SPA,no data,reef,0-5 kts,85,86,86,clear,YES,Bleaching ,Bleaching,Bleaching,Bleaching,Bleaching,Bleaching,Bleaching,51-75%,25,15,fire coral,palythoa,gorgonians,Some gorgo and sponge mortality,
Email ,Kayla Nimmo,9/6/2014,no data,Key West,FL,Research,Dry Tortugas NPS,24.71282,-82.79398,43,no data,no data,hardbottom,calm,no data,85,85,partly cloudy,YES,paling,paling,paling,none,none,none,none,1-10%,43,55,fire coral,palythoa,no data,"100% Palythoa bleached, 50% SSIDI bleached, 25 % MCAV bleached, 75% MALC bleached, 50% CNAT pale, 50% AAGA bleached, 25% MFRA pale, 25% SINT pale, 10% DSTO pale, 25 % PAST pale, 100% DSTR pale (of 1 colony), 10% of MYCE pale",
In person,Cory Walter,9/8/2014,9:17,Summerland Key,FL,Research,Mote Marine Laboratory,24.50784,-81.57169,44,FRRP 2381,no data,other/don't know,no data,no data,84,84,no data,YES,partial bleaching,Bleaching,partial bleaching,Bleaching,Bleaching,Bleaching,partial bleaching,76-100%,no data,no data,fire coral,palythoa,gorgonians,,
In person,Cory Walter,9/8/2014,10:20,Summerland Key,FL,Research,Mote Marine Laboratory,24.50636,-81.58693,33,FRRP 1214,no data,other/don't know,no data,no data,84,84,no data,YES,Bleaching ,Bleaching,Bleaching,Bleaching,Bleaching,Bleaching,partial bleaching,76-100%,no data,no data,fire coral,palythoa,gorgonians,,
In person,Cory Walter,9/8/2014,11:25,Summerland Key,FL,Research,Mote Marine Laboratory,24.51142,-81.56705,14,FRRP 1215,no data,other/don't know,no data,no data,84,84,no data,YES,partial bleaching,Bleaching,none,partial bleaching,none,none,none,51-75%,no data,no data,fire coral,palythoa,gorgonians,"Some gorgo mortality and Palythoa looked better"".""",
In person,Cory Walter,9/8/2014,12:05,Summerland Key,FL,Research,Mote Marine Laboratory,24.53903,-81.57218,24,FRRP 1215,no data,other/don't know,no data,no data,84,84,no data,YES,partial bleaching,Bleaching,none,partial bleaching,none,none,none,51-75%,no data,no data,fire coral,palythoa,gorgonians,,
In person,Cory Walter,9/8/2014,13:10,Summerland Key,FL,Research,Mote Marine Laboratory,24.54393,-81.56706,16,FRRP 1215,no data,other/don't know,no data,no data,84,84,no data,YES,partial bleaching,Bleaching,none,partial bleaching,none,none,none,51-75%,no data,no data,fire coral,palythoa,gorgonians,,
In person,Cory Walter,9/8/2014,14:04,Summerland Key,FL,Research,Mote Marine Laboratory,24.55421,-81.58885,18,FRRP 1168,no data,other/don't know,no data,no data,84,84,no data,YES,partial bleaching,Bleaching,partial bleaching,partial bleaching,none,none,none,51-75%,no data,no data,fire coral,palythoa,gorgonians,stark white! Even octos were bleached,
Email ,Cindy Lewis & Karen Neely,9/9/2014,13:30,Long Key,FL,Research,Keys Marine Lab,24.62548,-81.11178,15,Sombrero Reef SPA,no data,reef,10-15 kts,82,86,86,partly cloudy,YES,Bleaching ,partial bleaching,partial bleaching,partial bleaching,partial bleaching,partial bleaching,partial bleaching,31-50%,15,10,fire coral,palythoa,gorgonians,stark white! Even octos were bleached,
Email ,Cindy Lewis & Karen Neely,9/9/2014,15:00,Long Key,FL,Research,Keys Marine Lab,24.62970,-81.09315,35,Sombrero Reef North,no data,reef,10-15 kts,82,86,86,partly cloudy,YES,Bleaching ,Bleaching,Bleaching,Bleaching,none,partial bleaching,none,31-50%,35,30,fire coral,palythoa,gorgonians,"very pale: Dcyl, Colp, Dip spp, O fav, A palm (some totally
bleached white)",
Email ,Kayla Nimmo,9/10/2014,no data,Key West,FL,Research,Dry Tortugas NPS,24.66175,-82.84543,20,FRRP 1218,no data,hardbottom,calm,no data,86,86,partly cloudy,YES,Bleaching ,Bleaching,Bleaching,Bleaching,none,paling,none,31-50%,20,19,fire coral,palythoa,gorgonians,"PAST, ACER, SINT, MMEA, SSID, PPOR, PFUR, MCAV, DSTR all bleaching/paling.  about 50% of ACER colonies have recent mortality, and approx. 75% of ACER bleaching.",
Email ,Kayla Nimmo,9/10/2014,no data,Key West,FL,Research,Dry Tortugas NPS,24.68835,-82.88436,24,FRRP 1223,no data,hardbottom,no data,no data,no data,no data,no data,YES,Bleaching ,partial bleaching,Bleaching,Bleaching,none,none,none,11-30%,24,24,fire coral,palythoa,no data,"AAGA, DLAB, PFUR, DSTR all bleaching.  SSID,MCAV, MYCE paling.",
Email ,Kayla Nimmo,9/10/2014,no data,Key West,FL,Research,Dry Tortugas NPS,24.67997,-82.90499,28,FRRP 2427,no data,hardbottom,no data,no data,no data,no data,no data,YES,paling,none,none,paling,none,none,none,11-30%,28,28,fire coral,no data,no data,"DSTR, SSID paling.",
Email ,Kayla Nimmo,9/11/2014,11:00,Key West,FL,Research,Dry Tortugas NPS,24.62570,-82.88590,36,Magnetic North,no data,patch reef,calm,no data,85,86,clear,YES,Bleaching ,paling,Bleaching,Bleaching,none,none,none,31-50%,18,36,fire coral,palythoa,no data,"50% AAGA bleached, 30% DLAB bleached, 100% strigosa bleached, 30% SSID bleached, 100% MYCE bleached, 50% CNAT bleached, 50% DCLIV bleached, 25% of MDEC pale, 100% MALC bleached, 25% MCAV bleached, 75% Porites bleached",
Email ,Cindy Lewis & Karen Neely,9/11/2014,14:00,Long Key,FL,Research,Keys Marine Lab,25.27403,-80.21027,20,Pillar Coral Forest,no data,reef,0-5 kts,86,84,84,partly cloudy,YES,Bleaching,Bleaching,Bleaching,Bleaching,none,Bleaching,none,51-75%,20,15,fire coral,palythoa,gorgonians,"bleached: D cyl, S sid,Colp,O fav, O ann,   A agar, Dip spp, P por, P div, Millepora spp, many octocorals including Antillogorgia spp, Plexaura spp, Eunicia spp, Briarium
White Plague on many D cyl",
Email ,Kayla Nimmo,9/12/2014,no data,Key West,FL,Research,Dry Tortugas NPS,24.48155,-81.68050,32,no data,no data,reef,no data,no data,no data,no data,no data,YES,Bleaching ,Bleaching,Bleaching,Bleaching,none,Bleaching,none,76-100%,32,28,fire coral,palythoa,gorgonians,"Approximately 95% bleaching.  approx. 25% of SSID had dark spots.  One barrel sponge was diseased and mainly dead.  The following species were observed, all species observed were bleached.  MFRAN, MMEA, PAST, PFUR, MALC, PPOR, SSID, MCAV, AAGA, DSTR, DLAB, AFRIG, MCAV, DSTO, MANN, MFRI, DCLIV, CNAT, EFAS.",
Email ,Kayla Nimmo,9/12/2014,10:00,Key West,FL,Research,Dry Tortugas NPS,24.46417,-81.73783,64,Joes Tug,no data,other/don't know,no data,no data,no data,no data,no data,YES,Bleaching ,Bleaching,Bleaching,Bleaching,none,Bleaching,none,76-100%,64,500,fire coral,palythoa,gorgonians,,
Email ,Cindy Lewis & Karen Neely,9/12/2014,10:30,Long Key,FL,Research,Keys Marine Lab,24.99173,-80.40860,25,Pickles Reef,no data,reef,5-10 kts,84,84,84,cloudy,YES,Partial bleaching,partial bleaching,partial bleaching,partial bleaching,none,Bleaching,none,31-50%,25,15,fire coral,palythoa,no data,"D cyl, S sid very pale; bleached: A agar, Dip spp, P por, P div, Millepora spp, Briarium (other octocorals not bleached)",
Email ,Jessica Dockery,9/12/2014,10:00,Key Largo,FL,Education,Marine Resources,25.04450,-80.36997,11,White Bank,North ball,reef,5-10 kts,80,no data,no data,cloudy,YES,Partial bleaching,none,Bleaching,paling,none,none,none,11-30%,11,4,fire coral,gorgonians,no data,Will send pictures later.,
Email ,Jessica Dockery,9/13/2014,9:45,Key Largo,FL,Education,Marine Resources,25.10943,-80.33865,20,Cannon Patch,East side,patch reef,10-15 kts,no data,no data,no data,mostly cloudy,YES,partial bleaching,none,none,paling,none,none,none,1-10%,18,7,fire coral,no data,no data,,
Email ,Jessica Dockery,9/13/2014,10am,Key Largo,FL,Education,Marine Resources,25.16427,-80.27762,8,no data,no data,patch reef,10-15 kts,no data,no data,no data,mostly cloudy,YES,partial bleaching,none,none,paling,none,none,none,1-10%,8,6,fire coral,palythoa,gorgonians,,
Email ,Jessica Dockery,9/13/2014,11:00,Key Largo,FL,Education,Marine Resources,25.25858,-80.21045,20,no data,no data,reef,10-15 kts,no data,no data,no data,partly cloudy,YES,partial bleaching,none,Bleaching,paling,none,none,none,1-10%,18,7,fire coral,palythoa,gorgonians,,
Email ,Kayla Nimmo,9/16/2014,no data,Key West,FL,Research,Dry Tortugas NPS,24.62355,-82.94247,21,Windjammer,no data,other/don't know,calm,84,84.2,85,partly cloudy,YES,Bleaching ,Bleaching,Bleaching,Bleaching,none,none,none,31-50%,21,no data,fire coral,palythoa,no data,"1 colony of DCLIV had black band and approximately 20% of colony has recent death (on side opposite black band), 1 colony of CNAT has black band, 2 colonies of DLAB have unknown disease, 1 colony of DSTR has 100% recent death, 4 colonies of DSTR have black band, 2 colonies of DLAB have 40% recent death, 1 colony of CNAT has 25% recent death.  The following species were observed to be bleaching: MALC (75%), MCAV (50%), SSID (75%), DSTR (25%), MCAV (50%), CNAT (75%), PPOR (100%), DLAB (80%), CNAT (75%), PFUR (100%), MANN (75%), EFAS (100%), Palythoa (100%), DCLIV (25%)",
Email ,Jasmine Baloch,9/16/2014,no data,Key West,FL,Research,Dry Tortugas NPS,24.65492,-82.91255,8,Multiple Coralgasm,no data,patch reef,no data,no data,no data,no data,no data,YES,Bleaching ,partial bleaching,Bleaching,none,none,none,none,1-10%,8,2,fire coral,no data,no data,"The site is primarily MFRA which was healthy.  One colony of ACER was also observed and was healthy. The following were found at low percentages and had signs of bleaching/paling: DCLIV, MMAN, PAST, PPOR, DLAB, SINT, DSTR, CNAT.",
Email ,Cindy Lewis & Karen Neely,9/17/2014,12:00,Long Key,FL,Research,Keys Marine Lab,24.71782,-80.84213,32,Long Key Ledge,LKLD-2,reef,0-5 kts,84,84,82,partly cloudy,YES,Bleaching ,Bleaching,Bleaching,Bleaching,Bleaching,Bleaching,Bleaching,31-50%,32,28,fire coral,palythoa,gorgonians,"not sure if sent this one in yet
bleached: D cyl, O fav,  Dip spp, Colp,  P por, P ast,  Aga spp, S sid; octos: many pale and several species bleached
pix  available",
Email ,Cindy Lewis & Karen Neely,9/17/2014,12:30,Long Key,FL,Research,Keys Marine Lab,24.68988,-80.91917,20,Critter Ridge,no data,reef,0-5 kts,82,84,84,partly cloudy,YES,Bleaching ,Bleaching,Bleaching,Bleaching,none,Bleaching,none,31-50%,25,20,fire coral,palythoa,gorgonians,,
Email ,Kayla Nimmo,9/18/2014,15:50,Key West,FL,Research,Dry Tortugas NPS,24.70566,-82.87178,37,FRRP 2433,no data,hardbottom,no data,no data,no data,no data,no data,YES,paling,none,none,paling,none,Bleaching,none,1-10%,37,36,fire coral,palythoa,no data,AAGA and SSID had signs of bleaching,
Email ,Kayla Nimmo,9/18/2014,11:00,Key West,FL,Research,Dry Tortugas NPS,24.60166,-82.95712,47,FRRP 1236,no data,hardbottom,no data,no data,no data,no data,no data,YES,paling,none,none,paling,none,none,none,1-10%,no data,no data,fire coral,palythoa,no data,1 colony of SSID had dark spots.  approx. 50% of SSId pale.  approx. 15% of MFRA pale.,
Email ,Kayla Nimmo,9/18/2014,14:00,Key West,FL,Research,Dry Tortugas NPS,24.71093,-82.88372,45,FRRP 1225,no data,hardbottom,no data,no data,no data,no data,no data,YES,paling,Bleaching,none,paling,none,none,none,11-30%,45,44,fire coral,palythoa,no data,"MCAV, SCOL, SSID, MDEC had signs of paling.  PPOR was bleaching",
In person,Cory Walter,9/18/2014,11:25,Summerland Key,FL,Research,Mote Marine Laboratory,24.55229,-81.38380,no data,Outplant Site A,no data,patch reef,no data,no data,no data,no data,no data,YES,paling,partial bleaching,paling,paling,none,none,none,31-50%,no data,no data,fire coral,gorgonians,no data,,
In person,Cory Walter,9/18/2014,12:15,Summerland Key,FL,Research,Mote Marine Laboratory,24.56749,-81.38804,26,Outplant Site I ROA,no data,mid-channel reef,no data,no data,no data,no data,no data,YES,Bleaching ,partial bleaching,Bleaching,Bleaching,paling,partial bleaching,partial bleaching,51-75%,no data,no data,fire coral,gorgonians,no data,,
In person,Cory Walter,9/18/2014,13:10,Summerland Key,FL,Research,Mote Marine Laboratory,24.56929,-81.38236,26,"Outplant Site J, outside ROA",no data,mid-channel reef,no data,no data,no data,no data,no data,YES,Bleaching ,partial bleaching,Bleaching,Bleaching,paling,partial bleaching,partial bleaching,51-75%,no data,no data,fire coral,gorgonians,no data, ,
In person,Cory Walter,9/18/2014,14:10,Summerland Key,FL,Research,Mote Marine Laboratory,24.59565,-81.37162,25,Munson,no data,mid-channel reef,no data,no data,no data,no data,no data,YES,Bleaching ,partial bleaching,Bleaching,Bleaching,paling,partial bleaching,partial bleaching,51-75%,no data,no data,fire coral,gorgonians,no data,50% Cnat had very active BBD...have pics,
Email ,Gabby Renchen,9/18/2014,no data,Marathon,FL,Research,Florida Fish and Wildlife (FWC),24.52240,-81.51973,no data,American Shoals area,no data,reef,no data,no data,no data,no data,no data,YES,Bleaching ,no data,no data,no data,no data,no data,no data,31-50%,20,no data,no data,no data,no data,"PCLI bleached as well as many others.  Favia fragum, Manicina areolata, SSIDs",
Email ,Cindy Lewis & Tom Bartlett,9/18/2014,13:00,Long Key,FL,Research,Keys Marine Lab,24.81285,-80.66945,45,Alligator Reef,Cof Allig,reef,0-5 kts,82,84,84,mostly cloudy,YES,Bleaching ,Bleaching,Bleaching,Bleaching,Bleaching,Bleaching,Bleaching,51-75%,45,40,fire coral,palythoa,gorgonians,"bleached: O fav, O ann, Dip spp, Colp, A cerv, P por, P ast, Eus, Aga spp, S sid; octos: many pale and several species bleached
O fav - some colonies showing streaks of light brown (zoox!)
pix and movie available",
Email ,Trudy Ferraro,9/19/2014,12:41,Key Largo,FL,Research,FPS Pennekamp,25.06830,-80.39239,9,Mosquito Banks north,no data,mid-channel reef,no data,no data,no data,84,no data,YES,paling,none,none,paling,none,none,none,31-50%,9,9,fire coral,gorgonians,no data,lots of dark spot,
Email ,Trudy Ferraro,9/19/2014,9:30,Key Largo,FL,Research,FPS Pennekamp,25.13079,-80.36442,14,Mosquito Banks north,no data,patch reef,no data,no data,no data,86,mostly cloudy,YES,paling,none,none,paling,none,none,none,31-50%,14,12,fire coral,gorgonians,no data,,
Email ,Cindy Lewis & Tom Bartlett,9/19/2014,11:00,Long Key,FL,Research,Keys Marine Lab,24.47388,-81.74365,28,Marker 32,no data,reef,0-5 kts,82,82,82,mostly cloudy,YES,Bleaching ,Bleaching,Bleaching,Bleaching,Bleaching,Bleaching,Bleaching,51-75%,28,20,fire coral,palythoa,gorgonians,"bleached: D cyl, O fav, O ann, Dip spp, Colp, A cerv, P por, P ast, Eus, Aga spp, S sid; octos: many pale and several species bleached
O fav - some colonies showing streaks of light brown (zoox!)
pix  available",
Email ,Kayla Nimmo,9/20/2014,no data,Key West,FL,Research,Dry Tortugas NPS,24.69156,-82.84390,40,FRRp 2445,no data,hardbottom,no data,no data,no data,no data,no data,YES,partial bleaching,none,paling,Bleaching,Bleaching,none,none,11-30%,40,32,fire coral,palythoa,no data,"The following species had signs of paling: MMEA, SINT.  The following species had signs of bleaching/partial bleaching: MYCE, SSID, MUSA, SSID.  One colony of SSID had dark spots",
Email ,Kayla Nimmo,9/20/2014,no data,Key West,FL,Research,Dry Tortugas NPS,24.67549,-82.82593,no data,FRRP 1242,no data,hardbottom,no data,no data,no data,no data,no data,YES,Bleaching ,Bleaching,none,Bleaching,none,Bleaching,none,51-75%,30,28,fire coral,palythoa,gorgonians,"One colony of SSID had dark spots.   The following species showed signs of bleaching: PDIV, PFUR, AAGA, ODIF, SSID",
Email ,Kayla Nimmo,9/20/2014,13:30,Key West,FL,Research,Dry Tortugas NPS,24.62753,-82.83802,35,FRRP 2449,no data,hardbottom,no data,no data,no data,no data,no data,YES,paling,Bleaching,none,paling,none,partial bleaching,none,11-30%,35,30,fire coral,palythoa,gorgonians,"The following species had signs of bleaching: SSID, HCUC, PPOR.  The following species had signs of paling: ALAM, PPOR, MCAV, PAST",
Email ,Kayla Nimmo,9/20/2014,no data,Key West,FL,Research,Dry Tortugas NPS,24.63608,-82.80357,19,FRRP 2425,no data,hardbottom,no data,no data,no data,no data,no data,YES,Bleaching ,Bleaching,paling,Bleaching,none,none,none,11-30%,19,17,fire coral,palythoa,no data,"The following species had signs of paling: DCLIV.  The following species had signs of bleaching: PFUR, PPOR, PAST, SRAD, SSID",
Email ,Kayla Nimmo,9/21/2014,13:50,Key West,FL,Research,Dry Tortugas NPS,24.64250,-82.84444,54,FRRP 2424,no data,hardbottom,no data,no data,no data,no data,no data,YES,paling,none,none,paling,none,none,none,1-10%,54,48,fire coral,palythoa,no data,"1 colony of SSID had dark spots.  The following had signs of paling: MMEA, MCAV, PAST, MYCE.  The following had signs of bleaching: SSID, SINT",
Email ,Kayla Nimmo,9/21/2014,9:50,Key West,FL,Research,Dry Tortugas NPS,24.58341,-82.97165,45,FRRP 2442,no data,hardbottom,no data,no data,no data,no data,no data,YES,Bleaching ,paling,none,Bleaching,none,none,none,31-50%,45,42,fire coral,palythoa,no data,"The following species had signs of paling: MMEA, MCAV, PPOR, MFRA.  The following species had signs of bleaching: SSID, SINT, MCAV",
Email ,Kayla Nimmo,9/22/2014,15:30,Key West,FL,Research,Dry Tortugas NPS,24.61877,-82.92878,57,Treee,no data,hardbottom,no data,no data,no data,no data,no data,YES,partial bleaching,partial bleaching,paling,partial bleaching,none,none,none,11-30%,57,20,fire coral,palythoa,gorgonians,"Two colonies of SSID had dark spots.  CNAT was paled.  The following species had signs of bleaching/partial bleaching: MUSSA sp, SSID, HLUC, AAGA, MYCE, SINT, MCAV, MFRA, PPOR, PAST",
Email ,Kayla Nimmo,9/23/2014,no data,Key West,FL,Research,Dry Tortugas NPS,24.70743,-82.77335,78,no data,no data,hardbottom,no data,no data,no data,no data,no data,YES,partial bleaching,partial bleaching,partial bleaching,partial bleaching,none,none,none,1-10%,78,50,fire coral,palythoa,gorgonians,,
Email ,Kayla Nimmo,9/23/2014,no data,Key West,FL,Research,Dry Tortugas NPS,24.72300,-82.78483,54,no data,no data,hardbottom,no data,no data,no data,no data,no data,YES,partial bleaching,partial bleaching,partial bleaching,partial bleaching,partial bleaching,partial bleaching,none,1-10%,54,48,fire coral,palythoa,gorgonians,,
In person,Cory Walter,9/24/2014,12:00,Summerland Key,FL,Research,Mote Marine Laboratory,24.58580,-81.58121,30,Maryland Rock Pile,no data,patch reef,no data,no data,82,no data,no data,YES,partial bleaching,Bleaching,partial bleaching,partial bleaching,paling,partial bleaching,none,no data,no data,no data,fire coral,palythoa,gorgonians,"BBD, also found a large cyano matt.  Some dead gorgos.",
In person,Cory Walter,9/24/2014,15:00,Summerland Key,FL,Research,Mote Marine Laboratory,24.56271,-81.40353,15,Japp,no data,inshore,no data,no data,82,no data,no data,YES,partial bleaching,partial bleaching,partial bleaching,partial bleaching,none,partial bleaching,none,51-75%,no data,no data,fire coral,palythoa,gorgonians,"Looks like PAST corals are starting to gain some color back, however noticed some recent mortality on several.",
Email ,Karen Neely,9/24/2014,no data,Marathon,FL,Research,Florida Fish and Wildlife (FWC),24.61361667,-82.87085,20,Dry Tortugasf,no data,other/don't know,10-15 kts,no data,no data,no data,no data,YES,partial bleaching,partial bleaching,Bleaching,partial bleaching,none,none,none,76-100%,20,7,fire coral,palythoa,gorgonians,"""PPOR, MALC, AAGA, DSTR: 100% Bleached SSID, PAST: ~30-50% bleached APALM: ~75% bleached, mostly on top sides' DCYL: ~95% bleached, some non-bleached in crevices""",
Email ,Ken Nedimyer,10/1/2014,no data,Tavernier,FL,Research,Coral Restoration Foundation,25.13067,-80.29433,no data,Dry Rocks,no data,patch reef,no data,no data,no data,no data,no data,YES,Bleaching ,no data,no data,no data,no data,no data,no data,76-100%,no data,no data,fire coral,palythoa,gorgonians, ,
Email ,Ken Nedimyer,10/1/2014,no data,Tavernier,FL,Dive Industry,Coral Restoration Foundation,25.13685,-80.28927,no data,North Dry Rocks,no data,patch reef,no data,no data,no data,no data,no data,YES,Bleaching ,no data,no data,no data,no data,no data,no data,76-100%,no data,no data,fire coral,palythoa,gorgonians, ,
Email ,Ken Nedimyer,10/1/2014,no data,Tavernier,FL,Dive Industry,Coral Restoration Foundation,24.98617,-80.41567,no data,Pickles Reef,no data,patch reef,no data,no data,no data,no data,no data,YES,Bleaching ,no data,no data,no data,no data,no data,no data,76-100%,no data,no data,fire coral,palythoa,gorgonians, ,
Email ,Ken Nedimyer,10/1/2014,no data,Tavernier,FL,Dive Industry,Coral Restoration Foundation,24.98200,-80.42167,no data,Snapper Ledge,no data,patch reef,no data,no data,no data,no data,no data,YES,Bleaching ,no data,no data,no data,no data,no data,no data,76-100,no data,no data,fire coral,palythoa,gorgonians, ,
Email ,Ken Nedimyer,10/1/2014,no data,Tavernier,FL,Dive Industry,Coral Restoration Foundation,24.95183,-80.45940,no data,Conch Reef,no data,patch reef,no data,no data,no data,no data,no data,YES,Bleaching ,no data,no data,no data,no data,no data,no data,76-100%,no data,no data,fire coral,palythoa,gorgonians, ,
Email ,Ken Nedimyer,10/1/2014,no data,Tavernier,FL,Dive Industry,Coral Restoration Foundation,24.94250,-80.47383,no data,Little Conch Reef,no data,patch reef,no data,no data,no data,no data,no data,YES,Bleaching ,no data,no data,no data,no data,no data,no data,51-75%,no data,no data,fire coral,palythoa,gorgonians, ,
Email ,Ken Nedimyer,10/1/2014,no data,Tavernier,FL,Dive Industry,Coral Restoration Foundation,24.86298,-80.62232,no data,Alligator Reef,no data,reef,no data,no data,no data,no data,no data,YES,Bleaching ,no data,no data,no data,no data,no data,no data,no data,no data,no data,fire coral,palythoa,gorgonians, ,
Email ,Ken Nedimyer,10/1/2014,no data,Tavernier,FL,Dive Industry,Coral Restoration Foundation,24.72616,-80.92440,no data,East Turtle Shoals,no data,patch reef,no data,no data,no data,no data,no data,YES,partial bleaching,no data,no data,no data,no data,no data,no data,no data,no data,no data,fire coral,palythoa,gorgonians, ,
Email ,Gabby Renchen,10/1/2014,no data,Tavernier,FL,Research,Florida Fish and Wildlife (FWC),25.218124,-80.216046,no data,Carysfort,no data,reef,no data,no data,no data,no data,no data,YES,Bleaching ,no data,no data,no data,no data,no data,no data,11-30%,no data,no data,no data,no data,no data, ,
Email ,Danielle Morley,10/2/2014,12:27,Marathon,FL,Research,Florida Fish and Wildlife (FWC),24.53920,-81.57225,27,no data,no data,patch reef,0-5 kts,no data,no data,85,partly cloudy,YES,partial bleaching,none,Bleaching,partial bleaching,none,none,none,31-50%,no data,no data,no data,no data,no data,"M. cav, C. natans, S. sidera, O. annularis were all bleaching, some completely bleached, others were partially bleaching.",
Email ,Danielle Morley,10/2/2014,11:38,Marathon,FL,Research,Florida Fish and Wildlife (FWC),24.54393,-81.56653,19,no data,no data,patch reef,0-5 kts,no data,no data,85,partly cloudy,YES,partial bleaching,none,Bleaching,partial bleaching,none,none,none,31-50%,no data,no data,no data,no data,no data,"S. sidera, O. annularis and O. faviolata were all bleaching, some completely bleached, others were partially bleaching.",
Email ,Danielle Morley,10/2/2014,15:04,Marathon,FL,Research,Florida Fish and Wildlife (FWC),24.55433,-81.58883,20,no data,no data,patch reef,0-5 kts,no data,no data,85,partly cloudy,YES,partial bleaching,none,Bleaching,Bleaching,none,none,none,51-75%,no data,no data,no data,no data,no data,,
Email ,Danielle Morley,10/2/2014,10:00,Marathon,FL,Research,Florida Fish and Wildlife (FWC),24.52713,-81.55813,28,no data,no data,patch reef,0-5 kts,no data,no data,85,partly cloudy,YES,partial bleaching,none,Bleaching,Bleaching,none,none,none,51-75%,no data,no data,no data,no data,no data,,
Email ,Elena Muratori,10/3/2014,no data,Key Largo,FL,Dive Industry,Dry Tortugas NPS,24.84534,-80.62322,no data,Alligator Reef,no data,reef,no data,no data,no data,no data,no data,YES,Bleaching ,none,Bleaching,none,none,none,none,no data,no data,no data,no data,no data,no data,black band disease on brain corals,
Facebook,Kelli O'Donnel,10/3/2014,no data,Summerland Key,FL,Education,no data,24.47388,-81.74365,no data,CM 32,no data,other/don't know,no data,no data,no data,no data,no data,YES,Bleaching,no data,no data,no data,no data,no data,no data,no data,no data,no data,no data,no data,no data,,
Facebook,Kelli O'Donnel,10/3/2014,no data,Summerland Key,FL,Education,no data,24.55162,-81.69532,no data,Western Sambos,no data,patch reef,no data,no data,no data,no data,no data,YES,Bleaching,no data,no data,no data,no data,no data,no data,no data,no data,no data,no data,no data,no data,,
Email ,Denise Stephens,10/4/2014,13:00,Miami,FL,Resident,no data,24.81507,-80.67003,25,United States,no data,hardbottom,10-15 kts,89,no data,no data,no data,YES,Partial bleaching,none,Bleaching,partial bleaching,none,none,none,51-75%,no data,no data,no data,no data,no data,,
Email ,Cindy Lewis,10/6/2014,11:00,Long Key,FL,Research,Keys Marine Lab,24.47388,-81.74365,25,Marker 32,no data,reef,5-10 kts,85,84,84,clear,YES,Partial bleaching,Bleaching,partial bleaching,partial bleaching,none,Bleaching,Bleaching,31-50%,25,20,fire coral,gorgonians,no data,"Dendro still totally white, some hints of brown on edges of some Ofav, Dip spp, Many octos still bleached but some showing signs of recovery, others are sloughing dead tissue
black band: M cav, Meandrina, Dendro; 
white plague - Dendro
purple spot: Sid, Meandrina, M cav",
Email ,Cindy Lewis,10/6/2014,14:00,Long Key,FL,Research,Keys Marine Lab,24.47800,-81.72935,20,Western Sambo SW corner,no data,reef,10-15 kts,85,84,84,clear,YES,Partial bleaching,Bleaching,partial bleaching,partial bleaching,none,Bleaching,none,31-50%,20,15,fire coral,gorgonians,no data,"lots of recent dead Apal; Ofav and Dip spp edges showing brownish recovery small A palm and A cerv colonies - under sides brown, top bleached white",
Email ,Karen Neely,10/6/2014,no data,Big Pine Key,FL,Research,Florida Fish and Wildlife (FWC),24.54585,-81.40507,20,Looe  Key,no data,reef,no data,no data,no data,no data,no data,YES,Partial bleaching,none,partial bleaching,paling,none,none,none,31-50%,no data,no data,no data,no data,no data,"APALM in pretty good shape, not much bleaching. Montastraea and Palythoa pale. Some brain corals bleached.",
Email ,Barry Wray,10/7/2014,no data,Key West,FL,Resident,Personal,24.84543,-80.61523,no data,Off Alligator ,no data,reef,no data,no data,no data,no data,no data,YES,Bleaching ,no data,no data,no data,no data,no data,no data,76-100%,no data,no data,no data,no data,no data,,
Email ,Ken Nedimyer,10/7/2014,no data,Tavernier,FL,Dive Industry,Coral Restoration Foundation,25.01052,-80.37251,no data,Molassas,no data,reef,no data,no data,no data,no data,no data,YES,partial bleaching,none,Bleaching,Bleaching,none,none,none,no data,no data,no data,fire coral,no data,no data, ,
Email ,Ken Nedimyer,10/7/2014,no data,Tavernier,FL,Dive Industry,Coral Restoration Foundation,25.04636,-80.39649,no data,Sand Island,no data,other/don't know,no data,no data,no data,no data,no data,YES,partial bleaching,none,Bleaching,Bleaching,none,none,none,no data,no data,no data,fire coral,no data,no data, ,
In person,Chris Page,10/7/2014,no data,Summerland Key,FL,Research,Mote Marine Laboratory,24.62148,-81.36317,no data,Insure Culture,no data,inshore,no data,no data,no data,no data,no data,YES,partial bleaching,no data,no data,no data,no data,no data,no data,no data,no data,no data,no data,no data,no data,"recovering, some BBD on Cnat",
Email ,Karen Neely,10/8/2014,no data,Big Pine Key,FL,Research,Florida Fish and Wildlife (FWC),25.31618,-80.1871,20,Ball Buoy - Biscayne National Park,no data,reef,no data,no data,no data,no data,no data,YES,Partial bleaching,no data,no data,no data,no data,no data,no data,no data,no data,no data,no data,no data,no data,"Not much bleaching, and APALM looked very dark and healthy.",
Email ,Karen Neely,10/8/2014,no data,Big Pine Key,FL,Research,Florida Fish and Wildlife (FWC),25.32535,-80.15237,18,Pillar coral patch - Biscayne National Park,no data,other/don't know,no data,no data,no data,no data,no data,YES,Partial bleaching,Bleaching,none,none,none,none,none,no data,no data,no data,fire coral,palythoa,gorgonians,"DCYL here totally bleached. MALC, MMEA, PPOR, PAST bleached. Palythoa pale/partially bleached. Some octocorals bleached, others okay.",
Email ,Cindy Lewis,10/9/2014,11:00,Long Key,FL,Research,Keys Marine Lab,24.72505,-80.92025,28,East Turtle Shoals,Volcano,mid-channel reef,10-15 kts,82,84,84,mostly cloudy,YES,Partial bleaching,none,partial bleaching,partial bleaching,none,Bleaching,none,31-50%,28,20,fire coral,gorgonians,no data,"beginning to see browning up around the edges of O fav, Colp, Dip spp, still many other colonies stark white but not dead yet
Black Band disease on Mcav & Colp",
Email ,Karen Neely,10/9/2014,no data,Big Pine Key,FL,Research,Florida Fish and Wildlife (FWC),25.3732,-80.16032,no data,Marker 3 - Biscayne National Park,no data,other/don't know,no data,no data,no data,no data,no data,YES,Partial bleaching,Bleaching,none,none,none,none,none,no data,no data,no data,fire coral,palythoa,gorgonians,"Large patch of APALM, 100% bleached, some (~5%) associated mortality.",
Email ,Karen Neely,10/14/2014,no data,Marathon,FL,Research,Florida Fish and Wildlife (FWC),24.68188,-80.97092,25,Coffin's Patch,no data,reef,no data,no data,no data,no data,no data,YES,Partial bleaching,Bleaching,Bleaching,Bleaching,none,Bleaching,none,51-75%,25,15,fire coral,palythoa,no data,"DCYL: ~50% bleached, 35% pale. MALC, PAST, CNAT, DSTR almost totally bleached. PALY: 25% bleached. SSID generally okay",
Email ,Karen Neely,10/15/2014,no data,Marathon,FL,Research,Florida Fish and Wildlife (FWC),24.99178,-80.40863,20,Pickles,no data,patch reef,no data,no data,no data,no data,no data,YES,partial bleaching,Bleaching,Bleaching,none,none,Bleaching,none,51-75%,10,20,fire coral,palythoa,no data,"DCYL: ~50% bleached, 45% pale. Encrusting octocorals ~50% bleached. Palythoa ~30% bleached. MALC ~80% bleached. AAGA bleached",
Facebook,Kelli O'Donnel,10/17/2014,no data,Summerland Key,FL,Education,no data,24.99173,-80.40860,no data,Pickles Reef,no data,patch reef,no data,no data,no data,no data,no data,YES,partial bleaching,no data,no data,no data,no data,no data,no data,11-30%,no data,no data,no data,no data,no data,,
Facebook,Kelli O'Donnel,10/18/2014,no data,Summerland Key,FL,Education,no data,24.54521,-81.40728,no data,Looe #26,no data,reef,no data,no data,no data,no data,no data,YES,paling,no data,no data,no data,no data,no data,no data,1-10%,no data,no data,no data,no data,no data,,
Facebook,Kelli O'Donnel,10/18/2014,no data,Summerland Key,FL,Education,no data,24.62148,-81.36317,no data,Inshore Culture,no data,inshore,no data,no data,no data,no data,no data,YES,paling,no data,no data,no data,no data,no data,no data,1-10%,no data,no data,no data,no data,no data,,
Email ,Jessica Dockery,10/20/2014,10:00,Key Largo,FL,Education,Marine Resources,25.11167,-80.30917,no data,Grecian Rocks,center,reef,10-15 kts,no data,no data,no data,mostly cloudy,YES,upper surface,no data,no data,no data,no data,no data,no data,1-10%,6,2,gorgonians,no data,no data,,
In person,Cory Walter,10/30/2014,no data,Summerland Key,FL,Research,Mote Marine Laboratory,24.53145,-81.48355,no data,Outplant Site C,no data,patch reef,no data,no data,no data,no data,no data,YES,paling,no data,no data,no data,no data,no data,no data,31-50%,no data,no data,no data,no data,no data,zoos are coming back,
Facebook,Kelli O'Donnel,10/31/2014,no data,Summerland Key,FL,Education,no data,24.47388,-81.74365,no data,MM 32,no data,patch reef,no data,no data,no data,no data,no data,YES,paling,no data,no data,no data,no data,no data,no data,no data,no data,no data,no data,no data,no data,,
Facebook,Kelli O'Donnel,10/31/2014,no data,Summerland Key,FL,Education,no data,24.47800,-81.72935,no data,Western Sambos,no data,reef,no data,no data,no data,no data,no data,YES,upper surface,no data,no data,no data,no data,no data,no data,no data,no data,no data,no data,no data,no data,,
Email ,Tracy Ziegler,11/11/2014,13:00,Key West,FL,Research,Dry Tortugas NPS,24.66523,-82.92749,57,Loggerhead Forest,no data,hardbottom,10-15 kts,74,77,77,partly cloudy,YES,Partial bleaching,none,none,partial bleaching,none,none,none,1-10%,57,50,no data,no data,no data,"OFRA, MFAV, CNAT, and SSID all had signs of bleaching.  The overall percentage bleached was less than 5%.  A few colonies of DLAB had white band",
Email ,Kayla Nimmo,11/11/2014,14:000,Key West,FL,Research,Dry Tortugas NPS,24.66309,-82.93099,55,Loggerhead Forest,no data,hardbottom,10-15 kts,74,77,77,partly cloudy,YES,Partial bleaching,none,none,partial bleaching,none,paling,none,1-10%,55,48,no data,no data,no data,"Approximately 10% of OFRA, 50% of SSID, and 50% of SINT showed signs of partial bleaching.  30% of MYCE, and 10% of MCAV showed signs of paling. 1 colony of SSID had dark spots.  One colony of DLAB had signs of recent death.  Species with no signs of bleaching include, but are not limited to: MFAV, CNAT, DLAB, PPRO, Past, DSTR, and PDIF.",
